$PSRFTXT,Version:  GSW3.5.0_3.5.00.00-SDK-3EP2.01A *07
$PSRFTXT,TOW:  388601*11
$PSRFTXT,WK:   1647*61
$PSRFTXT,POS:  6378137 0 0*2A
$PSRFTXT,CLK:  96250*25
$PSRFTXT,CHNL: 12*73
$PSRFTXT,Baud rate: 9600*66
$GPGGA,115627.485,,,,,0,00,,,M,0.0,M,,0000*59
$GPGLL,,,,,115627.485,V,N*75
$GPGSA,A,1,,,,,,,,,,,,,,,*1E
$GPGSV,1,1,00*79
$GPRMC,115627.485,V,,,,,,,040811,,,N*4E
$GPVTG,,T,,M,,N,,K,N*2C
$GPGGA,115628.423,,,,,0,00,,,M,0.0,M,,0000*5A
$GPGLL,,,,,115628.423,V,N*76
$GPGSA,A,1,,,,,,,,,,,,,,,*1E
$GPGSV,1,1,00*79
$GPRMC,115628.423,V,,,,,,,040811,,,N*4D
$GPVTG,,T,,M,,N,,K,N*2C
$GPGGA,115629.417,,,,,0,00,,,M,0.0,M,,0000*5C
$GPGLL,,,,,115629.417,V,N*70
$GPGSA,A,1,,,,,,,,,,,,,,,*1E
$GPGSV,1,1,03,25,,,35,12,,,30,22,,,28*71
$GPRMC,115629.417,V,,,,,,,040811,,,N*4B
$GPVTG,,T,,M,,N,,K,N*2C
$GPGGA,115630.417,,,,,0,00,,,M,0.0,M,,0000*54
$GPGLL,,,,,115630.417,V,N*78
$GPGSA,A,1,,,,,,,,,,,,,,,*1E
$GPGSV,1,1,03,25,,,32,12,,,33,22,,,32*7E
$GPRMC,115630.417,V,,,,,,,040811,,,N*43
$GPVTG,,T,,M,,N,,K,N*2C
$GPGGA,115631.417,,,,,0,00,,,M,0.0,M,,0000*55
$GPGLL,,,,,115631.417,V,N*79
$GPGSA,A,1,,,,,,,,,,,,,,,*1E
$GPGSV,1,1,03,25,,,31,12,,,34,22,,,33*7B
$GPRMC,115631.417,V,,,,,,,040811,,,N*42
$GPVTG,,T,,M,,N,,K,N*2C
$GPGGA,115632.417,,,,,0,00,,,M,0.0,M,,0000*56
$GPGLL,,,,,115632.417,V,N*7A
$GPGSA,A,1,,,,,,,,,,,,,,,*1E
$GPGSV,1,1,03,25,,,24,12,,,34,22,,,35*79
$GPRMC,115632.417,V,,,,,,,040811,,,N*41
$GPVTG,,T,,M,,N,,K,N*2C
$GPGGA,115633.417,,,,,0,00,,,M,0.0,M,,0000*57
$GPGLL,,,,,115633.417,V,N*7B
$GPGSA,A,1,,,,,,,,,,,,,,,*1E
$GPGSV,1,1,03,25,,,25,12,,,34,22,,,34*79
$GPRMC,115633.417,V,,,,,,,040811,,,N*40
$GPVTG,,T,,M,,N,,K,N*2C
$GPGGA,115634.417,,,,,0,00,,,M,0.0,M,,0000*50
$GPGLL,,,,,115634.417,V,N*7C
$GPGSA,A,1,,,,,,,,,,,,,,,*1E
$GPGSV,1,1,03,25,,,26,12,,,34,22,,,34*7A
$GPRMC,115634.417,V,,,,,,,040811,,,N*47
$GPVTG,,T,,M,,N,,K,N*2C
$GPGGA,115635.417,,,,,0,00,,,M,0.0,M,,0000*51
$GPGLL,,,,,115635.417,V,N*7D
$GPGSA,A,1,,,,,,,,,,,,,,,*1E
$GPGSV,1,1,03,25,,,36,12,,,34,22,,,34*7B
$GPRMC,115635.417,V,,,,,,,040811,,,N*46
$GPVTG,,T,,M,,N,,K,N*2C
$GPGGA,115636.417,,,,,0,00,,,M,0.0,M,,0000*52
$GPGLL,,,,,115636.417,V,N*7E
$GPGSA,A,1,,,,,,,,,,,,,,,*1E
$GPGSV,1,1,03,25,,,36,12,,,33,22,,,34*7C
$GPRMC,115636.417,V,,,,,,,040811,,,N*45
$GPVTG,,T,,M,,N,,K,N*2C
$GPGGA,115637.417,,,,,0,00,,,M,0.0,M,,0000*53
$GPGLL,,,,,115637.417,V,N*7F
$GPGSA,A,1,,,,,,,,,,,,,,,*1E
$GPGSV,1,1,04,25,,,35,12,,,33,22,,,34,18,,,28*7B
$GPRMC,115637.417,V,,,,,,,040811,,,N*44
$GPVTG,,T,,M,,N,,K,N*2C
$GPGGA,115638.417,,,,,0,00,,,M,0.0,M,,0000*5C
$GPGLL,,,,,115638.417,V,N*70
$GPGSA,A,1,,,,,,,,,,,,,,,*1E
$GPGSV,1,1,04,25,,,33,12,,,33,22,,,34,18,,,30*74
$GPRMC,115638.417,V,,,,,,,040811,,,N*4B
$GPVTG,,T,,M,,N,,K,N*2C
$GPGGA,115639.417,,,,,0,00,,,M,0.0,M,,0000*5D
$GPGLL,,,,,115639.417,V,N*71
$GPGSA,A,1,,,,,,,,,,,,,,,*1E
$GPGSV,1,1,04,25,,,26,12,,,30,22,,,34,18,,,31*72
$GPRMC,115639.417,V,,,,,,,040811,,,N*4A
$GPVTG,,T,,M,,N,,K,N*2C
$GPGGA,115640.417,,,,,0,00,,,M,0.0,M,,0000*53
$GPGLL,,,,,115640.417,V,N*7F
$GPGSA,A,1,,,,,,,,,,,,,,,*1E
$GPGSV,1,1,04,25,,,28,12,,,27,22,,,34,18,,,31*7A
$GPRMC,115640.417,V,,,,,,,040811,,,N*44
$GPVTG,,T,,M,,N,,K,N*2C
$GPGGA,115641.417,,,,,0,00,,,M,0.0,M,,0000*52
$GPGLL,,,,,115641.417,V,N*7E
$GPGSA,A,1,,,,,,,,,,,,,,,*1E
$GPGSV,1,1,04,25,,,30,12,,,28,22,,,34,18,,,31*7C
$GPRMC,115641.417,V,,,,,,,040811,,,N*45
$GPVTG,,T,,M,,N,,K,N*2C
$GPGGA,115642.417,,,,,0,00,,,M,0.0,M,,0000*51
$GPGLL,,,,,115642.417,V,N*7D
$GPGSA,A,1,,,,,,,,,,,,,,,*1E
$GPGSV,1,1,04,25,,,31,12,,,28,22,,,34,18,,,26*7B
$GPRMC,115642.417,V,,,,,,,040811,,,N*46
$GPVTG,,T,,M,,N,,K,N*2C
$GPGGA,115622.948,,,,,0,00,,,M,0.0,M,,0000*50
$GPGLL,,,,,115622.948,V,N*7C
$GPGSA,A,1,,,,,,,,,,,,,,,*1E
$GPGSV,3,1,12,18,84,024,27,22,82,106,34,31,37,330,,14,26,052,*74
$GPGSV,3,2,12,29,25,132,,27,25,280,,30,20,037,,12,18,038,28*71
$GPGSV,3,3,12,21,14,160,,19,07,211,,32,04,326,,10,,143,*73
$GPRMC,115622.948,V,,,,,,,040811,,,N*47
$GPVTG,,T,,M,,N,,K,N*2C
$GPGGA,115623.948,,,,,0,00,,,M,0.0,M,,0000*51
$GPGLL,,,,,115623.948,V,N*7D
$GPGSA,A,1,,,,,,,,,,,,,,,*1E
$GPGSV,3,1,12,18,84,024,29,22,82,106,34,31,37,330,,14,26,052,*7A
$GPGSV,3,2,12,29,25,132,,27,25,280,,30,20,037,,12,18,038,28*71
$GPGSV,3,3,12,21,14,160,,19,07,211,,32,04,326,,10,,143,*73
$GPRMC,115623.948,V,,,,,,,040811,,,N*46
$GPVTG,,T,,M,,N,,K,N*2C
$GPGGA,115624.948,,,,,0,00,,,M,0.0,M,,0000*56
$GPGLL,,,,,115624.948,V,N*7A
$GPGSA,A,1,,,,,,,,,,,,,,,*1E
$GPGSV,3,1,12,18,84,024,29,22,82,106,34,31,37,330,,14,26,052,*7A
$GPGSV,3,2,12,29,25,132,,27,25,280,,30,20,037,,12,18,038,27*7E
$GPGSV,3,3,12,21,14,160,,19,07,211,,32,04,326,,10,,143,*73
$GPRMC,115624.948,V,,,,,,,040811,,,N*41
$GPVTG,,T,,M,,N,,K,N*2C
$GPGGA,115625.948,,,,,0,00,,,M,0.0,M,,0000*57
$GPGLL,,,,,115625.948,V,N*7B
$GPGSA,A,1,,,,,,,,,,,,,,,*1E
$GPGSV,3,1,12,18,84,024,29,22,82,106,34,31,37,330,,14,26,052,29*71
$GPGSV,3,2,12,29,25,132,,27,25,280,,30,20,037,,12,18,038,28*71
$GPGSV,3,3,12,21,14,160,,19,07,211,,32,04,326,,10,,143,*73
$GPRMC,115625.948,V,,,,,,,040811,,,N*40
$GPVTG,,T,,M,,N,,K,N*2C
$GPGGA,115626.948,,,,,0,00,,,M,0.0,M,,0000*54
$GPGLL,,,,,115626.948,V,N*78
$GPGSA,A,1,,,,,,,,,,,,,,,*1E
$GPGSV,3,1,12,18,84,024,29,22,82,106,34,31,37,330,,14,26,052,30*79
$GPGSV,3,2,12,29,25,132,,27,25,280,,30,20,037,,12,18,038,27*7E
$GPGSV,3,3,12,21,14,160,,19,07,211,,32,04,326,,10,,143,*73
$GPRMC,115626.948,V,,,,,,,040811,,,N*43
$GPVTG,,T,,M,,N,,K,N*2C
$GPGGA,115627.948,,,,,0,00,,,M,0.0,M,,0000*55
$GPGLL,,,,,115627.948,V,N*79
$GPGSA,A,1,,,,,,,,,,,,,,,*1E
$GPGSV,3,1,12,18,84,024,29,22,82,106,34,31,37,330,,14,26,052,30*79
$GPGSV,3,2,12,29,25,132,,27,25,280,,30,20,037,,12,18,038,27*7E
$GPGSV,3,3,12,21,14,160,,19,07,211,,32,04,326,,10,,143,*73
$GPRMC,115627.948,V,,,,,,,040811,,,N*42
$GPVTG,,T,,M,,N,,K,N*2C
$GPGGA,115628.948,,,,,0,00,,,M,0.0,M,,0000*5A
$GPGLL,,,,,115628.948,V,N*76
$GPGSA,A,1,,,,,,,,,,,,,,,*1E
$GPGSV,3,1,12,18,84,024,29,22,82,106,34,31,37,330,,14,26,052,30*79
$GPGSV,3,2,12,29,25,132,,27,25,280,,30,20,037,,12,18,038,27*7E
$GPGSV,3,3,12,21,14,160,,19,07,211,,32,04,326,,10,,143,*73
$GPRMC,115628.948,V,,,,,,,040811,,,N*4D
$GPVTG,,T,,M,,N,,K,N*2C
$GPGGA,115629.948,,,,,0,00,,,M,0.0,M,,0000*5B
$GPGLL,,,,,115629.948,V,N*77
$GPGSA,A,1,,,,,,,,,,,,,,,*1E
$GPGSV,3,1,12,18,84,024,29,22,82,106,34,31,37,330,,14,26,052,30*79
$GPGSV,3,2,12,29,25,132,,27,25,280,,30,20,037,,12,18,038,27*7E
$GPGSV,3,3,12,21,14,160,,19,07,211,,32,04,326,,10,,143,*73
$GPRMC,115629.948,V,,,,,,,040811,,,N*4C
$GPVTG,,T,,M,,N,,K,N*2C
$GPGGA,115630.948,,,,,0,00,,,M,0.0,M,,0000*53
$GPGLL,,,,,115630.948,V,N*7F
$GPGSA,A,1,,,,,,,,,,,,,,,*1E
$GPGSV,3,1,12,18,84,024,30,22,82,106,34,31,37,330,,14,26,052,30*71
$GPGSV,3,2,12,29,25,132,,27,25,280,,30,20,037,,12,18,038,28*71
$GPGSV,3,3,12,21,14,160,,19,07,211,,32,04,326,,10,,143,*73
$GPRMC,115630.948,V,,,,,,,040811,,,N*44
$GPVTG,,T,,M,,N,,K,N*2C
$GPGGA,115631.948,,,,,0,00,,,M,0.0,M,,0000*52
$GPGLL,,,,,115631.948,V,N*7E
$GPGSA,A,1,,,,,,,,,,,,,,,*1E
$GPGSV,3,1,12,18,84,024,30,22,82,106,33,31,37,330,,14,26,052,30*76
$GPGSV,3,2,12,29,25,132,,27,25,280,,30,20,037,,12,18,038,28*71
$GPGSV,3,3,12,21,14,160,,19,07,211,,32,04,326,,10,,143,*73
$GPRMC,115631.948,V,,,,,,,040811,,,N*45
$GPVTG,,T,,M,,N,,K,N*2C
$GPGGA,115632.948,,,,,0,00,,,M,0.0,M,,0000*51
$GPGLL,,,,,115632.948,V,N*7D
$GPGSA,A,1,,,,,,,,,,,,,,,*1E
$GPGSV,3,1,12,18,84,024,30,22,82,106,33,31,37,330,,14,26,052,30*76
$GPGSV,3,2,12,29,25,132,,27,25,280,,30,20,037,,12,18,038,28*71
$GPGSV,3,3,12,21,14,160,,19,07,211,,32,04,326,,10,,143,*73
$GPRMC,115632.948,V,,,,,,,040811,,,N*46
$GPVTG,,T,,M,,N,,K,N*2C
$GPGGA,115633.948,,,,,0,00,,,M,0.0,M,,0000*50
$GPGLL,,,,,115633.948,V,N*7C
$GPGSA,A,1,,,,,,,,,,,,,,,*1E
$GPGSV,3,1,12,18,84,024,30,22,82,106,33,31,37,330,,14,26,052,30*76
$GPGSV,3,2,12,29,25,132,,27,25,280,,30,20,037,,12,18,038,27*7E
$GPGSV,3,3,12,21,14,160,,19,07,211,,32,04,326,,10,,143,*73
$GPRMC,115633.948,V,,,,,,,040811,,,N*47
$GPVTG,,T,,M,,N,,K,N*2C
$GPGGA,115634.948,,,,,0,00,,,M,0.0,M,,0000*57
$GPGLL,,,,,115634.948,V,N*7B
$GPGSA,A,1,,,,,,,,,,,,,,,*1E
$GPGSV,3,1,12,18,84,024,30,22,82,106,33,31,37,330,,14,26,052,30*76
$GPGSV,3,2,12,29,25,132,,27,25,280,,30,20,037,,12,18,038,28*71
$GPGSV,3,3,12,21,14,160,,19,07,211,,32,04,326,,10,,143,*73
$GPRMC,115634.948,V,,,,,,,040811,,,N*40
$GPVTG,,T,,M,,N,,K,N*2C
$GPGGA,115635.948,,,,,0,00,,,M,0.0,M,,0000*56
$GPGLL,,,,,115635.948,V,N*7A
$GPGSA,A,1,,,,,,,,,,,,,,,*1E
$GPGSV,3,1,12,18,84,024,30,22,82,106,33,31,37,330,,14,26,052,30*76
$GPGSV,3,2,12,29,25,132,,27,25,280,,30,20,037,,12,18,038,28*71
$GPGSV,3,3,12,21,14,160,,19,07,211,,32,04,326,,10,,143,*73
$GPRMC,115635.948,V,,,,,,,040811,,,N*41
$GPVTG,,T,,M,,N,,K,N*2C
$GPGGA,115636.948,,,,,0,00,,,M,0.0,M,,0000*55
$GPGLL,,,,,115636.948,V,N*79
$GPGSA,A,1,,,,,,,,,,,,,,,*1E
$GPGSV,3,1,12,18,84,024,30,22,82,106,33,31,37,330,,14,26,052,30*76
$GPGSV,3,2,12,29,25,132,,27,25,280,,30,20,037,,12,18,038,28*71
$GPGSV,3,3,12,21,14,160,,19,07,211,,32,04,326,,10,,143,*73
$GPRMC,115636.948,V,,,,,,,040811,,,N*42
$GPVTG,,T,,M,,N,,K,N*2C
$GPGGA,115637.950,,,,,0,00,,,M,0.0,M,,0000*5D
$GPGLL,,,,,115637.950,V,N*71
$GPGSA,A,1,,,,,,,,,,,,,,,*1E
$GPGSV,3,1,12,18,84,024,32,22,82,106,32,31,37,330,,14,26,052,29*7D
$GPGSV,3,2,12,29,25,132,,27,25,280,,30,20,037,,12,18,038,28*71
$GPGSV,3,3,12,21,14,160,,19,07,211,,32,04,326,28,10,,143,*79
$GPRMC,115637.950,V,,,,,,,040811,,,N*4A
$GPVTG,,T,,M,,N,,K,N*2C
$GPGGA,115638.950,,,,,0,00,,,M,0.0,M,,0000*52
$GPGLL,,,,,115638.950,V,N*7E
$GPGSA,A,1,,,,,,,,,,,,,,,*1E
$GPGSV,3,1,12,18,84,024,32,22,82,106,33,31,37,330,,14,26,052,29*7C
$GPGSV,3,2,12,29,25,132,,27,25,280,,30,20,037,,12,18,038,30*78
$GPGSV,3,3,12,21,14,160,,19,07,211,,32,04,326,29,10,,143,*78
$GPRMC,115638.950,V,,,,,,,040811,,,N*45
$GPVTG,,T,,M,,N,,K,N*2C
$GPGGA,115639.950,,,,,0,00,,,M,0.0,M,,0000*53
$GPGLL,,,,,115639.950,V,N*7F
$GPGSA,A,1,,,,,,,,,,,,,,,*1E
$GPGSV,3,1,12,18,84,024,31,22,82,106,33,31,37,330,,14,26,052,29*7F
$GPGSV,3,2,12,29,25,132,,27,25,280,,30,20,037,,12,18,038,31*79
$GPGSV,3,3,12,21,14,160,,19,07,211,,32,04,326,29,10,,143,*78
$GPRMC,115639.950,V,,,,,,,040811,,,N*44
$GPVTG,,T,,M,,N,,K,N*2C
$GPGGA,115640.950,,,,,0,00,,,M,0.0,M,,0000*5D
$GPGLL,,,,,115640.950,V,N*71
$GPGSA,A,1,,,,,,,,,,,,,,,*1E
$GPGSV,3,1,12,18,84,024,31,22,82,106,33,31,37,330,,14,26,052,29*7F
$GPGSV,3,2,12,29,25,132,,27,25,280,,30,20,037,,12,18,038,31*79
$GPGSV,3,3,12,21,14,160,,19,07,211,,32,04,326,29,10,,143,*78
$GPRMC,115640.950,V,,,,,,,040811,,,N*4A
$GPVTG,,T,,M,,N,,K,N*2C
$GPGGA,115641.950,,,,,0,00,,,M,0.0,M,,0000*5C
$GPGLL,,,,,115641.950,V,N*70
$GPGSA,A,1,,,,,,,,,,,,,,,*1E
$GPGSV,3,1,12,18,84,024,30,22,82,106,33,31,37,330,,14,26,052,29*7E
$GPGSV,3,2,12,29,25,132,,27,25,280,,30,20,037,,12,18,038,31*79
$GPGSV,3,3,12,21,14,160,,19,07,211,,32,04,326,29,10,,143,*78
$GPRMC,115641.950,V,,,,,,,040811,,,N*4B
$GPVTG,,T,,M,,N,,K,N*2C
$GPGGA,115642.950,,,,,0,00,,,M,0.0,M,,0000*5F
$GPGLL,,,,,115642.950,V,N*73
$GPGSA,A,1,,,,,,,,,,,,,,,*1E
$GPGSV,3,1,12,18,84,024,30,22,82,106,33,31,37,330,,14,26,052,29*7E
$GPGSV,3,2,12,29,25,132,,27,25,280,,30,20,037,,12,18,038,30*78
$GPGSV,3,3,12,21,14,160,,19,07,211,,32,04,326,29,10,,143,*78
$GPRMC,115642.950,V,,,,,,,040811,,,N*48
$GPVTG,,T,,M,,N,,K,N*2C
$GPGGA,115643.950,,,,,0,00,,,M,0.0,M,,0000*5E
$GPGLL,,,,,115643.950,V,N*72
$GPGSA,A,1,,,,,,,,,,,,,,,*1E
$GPGSV,3,1,12,18,84,024,30,22,82,106,33,31,37,330,,14,26,052,29*7E
$GPGSV,3,2,12,29,25,132,,27,25,280,,30,20,037,,12,18,038,30*78
$GPGSV,3,3,12,21,14,160,,19,07,211,,32,04,326,29,10,,143,*78
$GPRMC,115643.950,V,,,,,,,040811,,,N*49
$GPVTG,,T,,M,,N,,K,N*2C
$GPGGA,115644.950,,,,,0,00,,,M,0.0,M,,0000*59
$GPGLL,,,,,115644.950,V,N*75
$GPGSA,A,1,,,,,,,,,,,,,,,*1E
$GPGSV,3,1,12,18,84,024,30,22,82,106,33,31,37,330,,14,26,052,29*7E
$GPGSV,3,2,12,29,25,132,,27,25,280,,30,20,037,,12,18,038,30*78
$GPGSV,3,3,12,21,14,160,,19,07,211,,32,04,326,29,10,,143,*78
$GPRMC,115644.950,V,,,,,,,040811,,,N*4E
$GPVTG,,T,,M,,N,,K,N*2C
$GPGGA,115645.950,,,,,0,00,,,M,0.0,M,,0000*58
$GPGLL,,,,,115645.950,V,N*74
$GPGSA,A,1,,,,,,,,,,,,,,,*1E
$GPGSV,3,1,12,18,84,024,30,22,82,106,33,31,37,330,,14,26,052,29*7E
$GPGSV,3,2,12,29,25,132,,27,25,280,,30,20,037,,12,18,038,30*78
$GPGSV,3,3,12,21,14,160,,19,07,211,,32,04,326,29,10,,143,*78
$GPRMC,115645.950,V,,,,,,,040811,,,N*4F
$GPVTG,,T,,M,,N,,K,N*2C
$GPGGA,115646.950,,,,,0,00,,,M,0.0,M,,0000*5B
$GPGLL,,,,,115646.950,V,N*77
$GPGSA,A,1,,,,,,,,,,,,,,,*1E
$GPGSV,3,1,12,18,84,024,30,22,82,106,33,31,37,330,,14,26,052,30*76
$GPGSV,3,2,12,29,25,132,,27,25,280,,30,20,037,,12,18,038,30*78
$GPGSV,3,3,12,21,14,160,,19,07,211,,32,04,326,29,10,,143,*78
$GPRMC,115646.950,V,,,,,,,040811,,,N*4C
$GPVTG,,T,,M,,N,,K,N*2C
$GPGGA,115647.950,,,,,0,00,,,M,0.0,M,,0000*5A
$GPGLL,,,,,115647.950,V,N*76
$GPGSA,A,1,,,,,,,,,,,,,,,*1E
$GPGSV,3,1,12,18,84,024,30,22,82,106,33,31,37,330,,14,26,052,30*76
$GPGSV,3,2,12,29,25,132,,27,25,280,,30,20,037,,12,18,038,30*78
$GPGSV,3,3,12,21,14,160,,19,07,211,,32,04,326,29,10,,143,*78
$GPRMC,115647.950,V,,,,,,,040811,,,N*4D
$GPVTG,,T,,M,,N,,K,N*2C
$GPGGA,115648.950,,,,,0,00,,,M,0.0,M,,0000*55
$GPGLL,,,,,115648.950,V,N*79
$GPGSA,A,1,,,,,,,,,,,,,,,*1E
$GPGSV,3,1,12,18,84,024,30,22,82,106,33,31,37,330,,14,26,052,30*76
$GPGSV,3,2,12,29,25,132,,27,25,280,,30,20,037,,12,18,038,30*78
$GPGSV,3,3,12,21,14,160,,19,07,211,,32,04,326,29,10,,143,*78
$GPRMC,115648.950,V,,,,,,,040811,,,N*42
$GPVTG,,T,,M,,N,,K,N*2C
$GPGGA,115649.950,,,,,0,00,,,M,0.0,M,,0000*54
$GPGLL,,,,,115649.950,V,N*78
$GPGSA,A,1,,,,,,,,,,,,,,,*1E
$GPGSV,3,1,12,18,84,024,29,22,82,106,33,31,37,330,,14,26,052,30*7E
$GPGSV,3,2,12,29,25,132,,27,25,280,,30,20,037,,12,18,038,30*78
$GPGSV,3,3,12,21,14,160,,19,07,211,,32,04,326,29,10,,143,*78
$GPRMC,115649.950,V,,,,,,,040811,,,N*43
$GPVTG,,T,,M,,N,,K,N*2C
$GPGGA,115650.950,,,,,0,00,,,M,0.0,M,,0000*5C
$GPGLL,,,,,115650.950,V,N*70
$GPGSA,A,1,,,,,,,,,,,,,,,*1E
$GPGSV,3,1,12,18,84,024,29,22,82,106,33,31,37,330,,14,26,052,30*7E
$GPGSV,3,2,12,29,25,132,,27,25,280,,30,20,037,,12,18,038,30*78
$GPGSV,3,3,12,21,14,160,,19,07,211,,32,04,326,29,10,,143,*78
$GPRMC,115650.950,V,,,,,,,040811,,,N*4B
$GPVTG,,T,,M,,N,,K,N*2C
$GPGGA,115651.950,,,,,0,00,,,M,0.0,M,,0000*5D
$GPGLL,,,,,115651.950,V,N*71
$GPGSA,A,1,,,,,,,,,,,,,,,*1E
$GPGSV,3,1,12,18,84,024,29,22,82,106,33,31,37,330,,14,26,052,30*7E
$GPGSV,3,2,12,29,25,132,,27,25,280,,30,20,037,,12,18,038,30*78
$GPGSV,3,3,12,21,14,160,,19,07,211,,32,04,326,29,10,,143,*78
$GPRMC,115651.950,V,,,,,,,040811,,,N*4A
$GPVTG,,T,,M,,N,,K,N*2C
$GPGGA,115652.950,,,,,0,00,,,M,0.0,M,,0000*5E
$GPGLL,,,,,115652.950,V,N*72
$GPGSA,A,1,,,,,,,,,,,,,,,*1E
$GPGSV,3,1,12,18,84,024,29,22,82,106,33,31,37,330,,14,26,052,31*7F
$GPGSV,3,2,12,29,25,132,,27,25,280,,30,20,037,,12,18,038,30*78
$GPGSV,3,3,12,21,14,160,,19,07,211,,32,04,326,29,10,,143,*78
$GPRMC,115652.950,V,,,,,,,040811,,,N*49
$GPVTG,,T,,M,,N,,K,N*2C
$GPGGA,115653.950,,,,,0,00,,,M,0.0,M,,0000*5F
$GPGLL,,,,,115653.950,V,N*73
$GPGSA,A,1,,,,,,,,,,,,,,,*1E
$GPGSV,3,1,12,18,84,024,29,22,82,106,33,31,37,330,,14,26,052,31*7F
$GPGSV,3,2,12,29,25,132,,27,25,280,,30,20,037,,12,18,038,30*78
$GPGSV,3,3,12,21,14,160,,19,07,211,,32,04,326,29,10,,143,*78
$GPRMC,115653.950,V,,,,,,,040811,,,N*48
$GPVTG,,T,,M,,N,,K,N*2C
$GPGGA,115654.950,,,,,0,00,,,M,0.0,M,,0000*58
$GPGLL,,,,,115654.950,V,N*74
$GPGSA,A,1,,,,,,,,,,,,,,,*1E
$GPGSV,3,1,12,18,84,024,29,22,82,106,34,31,37,330,,14,26,052,31*78
$GPGSV,3,2,12,29,25,132,,27,25,280,,30,20,037,,12,18,038,30*78
$GPGSV,3,3,12,21,14,160,,19,07,211,,32,04,326,29,10,,143,*78
$GPRMC,115654.950,V,,,,,,,040811,,,N*4F
$GPVTG,,T,,M,,N,,K,N*2C
$GPGGA,115655.950,,,,,0,00,,,M,0.0,M,,0000*59
$GPGLL,,,,,115655.950,V,N*75
$GPGSA,A,1,,,,,,,,,,,,,,,*1E
$GPGSV,3,1,12,18,84,024,29,22,82,106,34,31,37,330,,14,26,052,31*78
$GPGSV,3,2,12,29,25,132,,27,25,280,,30,20,037,,12,18,038,30*78
$GPGSV,3,3,12,21,14,160,,19,07,211,,32,04,326,29,10,,143,*78
$GPRMC,115655.950,V,,,,,,,040811,,,N*4E
$GPVTG,,T,,M,,N,,K,N*2C
$GPGGA,115656.950,,,,,0,00,,,M,0.0,M,,0000*5A
$GPGLL,,,,,115656.950,V,N*76
$GPGSA,A,1,,,,,,,,,,,,,,,*1E
$GPGSV,3,1,12,18,84,024,28,22,82,106,34,31,37,330,,14,26,052,31*79
$GPGSV,3,2,12,29,25,132,,27,25,280,,30,20,037,,12,18,038,30*78
$GPGSV,3,3,12,21,14,160,,19,07,211,,32,04,326,29,10,,143,*78
$GPRMC,115656.950,V,,,,,,,040811,,,N*4D
$GPVTG,,T,,M,,N,,K,N*2C
$GPGGA,115657.953,3958.3625,N,08310.5958,W,0,03,,33.2,M,-33.2,M,,0000*7F
$GPGLL,3958.3625,N,08310.5958,W,115657.953,V,N*53
$GPGSA,A,1,12,22,14,,,,,,,,,,,,*18
$GPGSV,3,1,11,14,59,057,32,22,41,154,34,12,20,045,30,18,05,144,28*77
$GPGSV,3,2,11,31,80,258,,32,47,309,29,30,35,065,,27,34,238,*73
$GPGSV,3,3,11,11,11,274,,05,10,038,,20,07,317,*47
$GPRMC,115657.953,V,3958.3625,N,08310.5958,W,,,040811,,,N*68
$GPVTG,,T,,M,,N,,K,N*2C
$GPGGA,115658.953,3958.3625,N,08310.5956,W,0,03,,33.2,M,-33.2,M,,0000*7E
$GPGLL,3958.3625,N,08310.5956,W,115658.953,V,N*52
$GPGSA,A,1,12,22,14,,,,,,,,,,,,*18
$GPGSV,3,1,11,14,59,057,32,22,41,154,34,12,20,045,30,18,05,144,28*77
$GPGSV,3,2,11,31,80,258,,32,47,309,29,30,35,065,,27,34,238,*73
$GPGSV,3,3,11,11,11,274,,05,10,038,,20,07,317,*47
$GPRMC,115658.953,V,3958.3625,N,08310.5956,W,,,040811,,,N*69
$GPVTG,,T,,M,,N,,K,N*2C
$GPGGA,115659.953,3958.3625,N,08310.5963,W,0,03,,33.2,M,-33.2,M,,0000*79
$GPGLL,3958.3625,N,08310.5963,W,115659.953,V,N*55
$GPGSA,A,1,12,22,14,,,,,,,,,,,,*18
$GPGSV,3,1,11,14,59,057,32,22,41,154,34,12,20,045,30,18,05,144,28*77
$GPGSV,3,2,11,31,80,258,,32,47,309,29,30,35,065,,27,34,238,*73
$GPGSV,3,3,11,11,11,274,,05,10,038,,20,07,317,*47
$GPRMC,115659.953,V,3958.3625,N,08310.5963,W,,,040811,,,N*6E
$GPVTG,,T,,M,,N,,K,N*2C
$GPGGA,115700.953,3958.3626,N,08310.5970,W,0,03,,33.2,M,-33.2,M,,0000*75
$GPGLL,3958.3626,N,08310.5970,W,115700.953,V,N*59
$GPGSA,A,1,12,22,14,,,,,,,,,,,,*18
$GPGSV,3,1,11,14,59,057,32,22,41,154,34,12,20,045,30,18,05,144,28*77
$GPGSV,3,2,11,31,80,258,,32,47,309,29,30,35,065,,27,34,238,*73
$GPGSV,3,3,11,11,11,274,,05,10,038,,20,07,317,*47
$GPRMC,115700.953,V,3958.3626,N,08310.5970,W,,,040811,,,N*62
$GPVTG,,T,,M,,N,,K,N*2C
$GPGGA,115701.953,3958.3626,N,08310.5974,W,0,03,,33.2,M,-33.2,M,,0000*70
$GPGLL,3958.3626,N,08310.5974,W,115701.953,V,N*5C
$GPGSA,A,1,12,22,14,,,,,,,,,,,,*18
$GPGSV,3,1,11,14,59,057,32,22,41,154,34,12,20,045,30,18,05,144,28*77
$GPGSV,3,2,11,31,80,258,,32,47,309,29,30,35,065,,27,34,238,*73
$GPGSV,3,3,11,11,11,274,,05,10,038,,20,07,317,*47
$GPRMC,115701.953,V,3958.3626,N,08310.5974,W,,,040811,,,N*67
$GPVTG,,T,,M,,N,,K,N*2C
$GPGGA,115702.953,3958.3626,N,08310.5979,W,0,03,,33.2,M,-33.2,M,,0000*7E
$GPGLL,3958.3626,N,08310.5979,W,115702.953,V,N*52
$GPGSA,A,1,12,22,14,,,,,,,,,,,,*18
$GPGSV,3,1,11,14,59,057,32,22,41,154,34,12,20,045,30,18,05,144,28*77
$GPGSV,3,2,11,31,80,258,,32,47,309,29,30,35,065,,27,34,238,*73
$GPGSV,3,3,11,11,11,274,,05,10,038,,20,07,317,*47
$GPRMC,115702.953,V,3958.3626,N,08310.5979,W,,,040811,,,N*69
$GPVTG,,T,,M,,N,,K,N*2C
$GPGGA,115703.953,3958.2935,N,08310.0976,W,1,04,1.5,281.2,M,-33.2,M,,0000*6E
$GPGLL,3958.2935,N,08310.0976,W,115703.953,A,A*4D
$GPGSA,A,3,12,22,14,32,,,,,,,,,3.4,1.5,3.0*35
$GPGSV,3,1,11,14,59,057,32,22,41,154,34,12,20,045,30,18,05,144,28*77
$GPGSV,3,2,11,31,80,258,,32,47,309,29,30,35,065,,27,34,238,*73
$GPGSV,3,3,11,11,11,274,,05,10,038,,20,07,317,*47
$GPRMC,115703.953,A,3958.2935,N,08310.0976,W,0.14,100.13,040811,,,A*70
$GPVTG,100.13,T,,M,0.14,N,0.3,K,A*08
$GPGGA,115704.953,3958.2934,N,08310.0976,W,1,04,1.5,281.2,M,-33.2,M,,0000*68
$GPGLL,3958.2934,N,08310.0976,W,115704.953,A,A*4B
$GPGSA,A,3,12,22,14,32,,,,,,,,,3.4,1.5,3.0*35
$GPGSV,3,1,11,14,59,057,32,22,41,154,34,32,32,311,29,12,20,045,30*78
$GPGSV,3,2,11,18,05,144,28,31,80,259,,30,35,065,,27,34,238,*76
$GPGSV,3,3,11,11,11,274,,05,10,038,,20,07,317,*47
$GPRMC,115704.953,A,3958.2934,N,08310.0976,W,0.12,129.43,040811,,,A*7E
$GPVTG,129.43,T,,M,0.12,N,0.2,K,A*01
$GPGGA,115705.953,3958.2934,N,08310.0976,W,1,04,1.5,281.3,M,-33.2,M,,0000*68
$GPGLL,3958.2934,N,08310.0976,W,115705.953,A,A*4A
$GPGSA,A,3,12,22,14,32,,,,,,,,,3.4,1.5,3.0*35
$GPGSV,3,1,11,14,59,057,32,22,41,154,34,32,32,311,29,12,20,045,30*78
$GPGSV,3,2,11,18,05,144,28,31,80,259,,30,35,065,,27,34,238,*76
$GPGSV,3,3,11,11,11,274,,05,10,038,,20,07,317,*47
$GPRMC,115705.953,A,3958.2934,N,08310.0976,W,0.11,106.38,040811,,,A*7D
$GPVTG,106.38,T,,M,0.11,N,0.2,K,A*03
$GPGGA,115706.953,3958.2934,N,08310.0976,W,1,04,1.5,281.3,M,-33.2,M,,0000*6B
$GPGLL,3958.2934,N,08310.0976,W,115706.953,A,A*49
$GPGSA,A,3,12,22,14,32,,,,,,,,,3.4,1.5,3.0*35
$GPGSV,3,1,11,14,59,057,32,22,41,154,34,32,32,311,29,12,20,045,30*78
$GPGSV,3,2,11,18,05,144,28,31,80,259,,30,35,065,,27,34,238,*76
$GPGSV,3,3,11,11,11,274,,05,10,038,,20,07,317,*47
$GPRMC,115706.953,A,3958.2934,N,08310.0976,W,0.11,109.92,040811,,,A*71
$GPVTG,109.92,T,,M,0.11,N,0.2,K,A*0C
$GPGGA,115707.953,3958.2934,N,08310.0976,W,1,04,1.5,281.2,M,-33.2,M,,0000*6B
$GPGLL,3958.2934,N,08310.0976,W,115707.953,A,A*48
$GPGSA,A,3,12,22,14,32,,,,,,,,,3.4,1.5,3.0*35
$GPGSV,3,1,11,14,59,057,31,22,41,154,34,32,32,311,29,12,20,045,30*7B
$GPGSV,3,2,11,18,05,144,28,31,80,259,,30,35,065,,27,34,238,*76
$GPGSV,3,3,11,11,11,274,,05,10,038,,20,07,317,*47
$GPRMC,115707.953,A,3958.2934,N,08310.0976,W,0.14,126.91,040811,,,A*7B
$GPVTG,126.91,T,,M,0.14,N,0.3,K,A*06
$GPGGA,115708.953,3958.2933,N,08310.0976,W,1,04,1.5,281.2,M,-33.2,M,,0000*63
$GPGLL,3958.2933,N,08310.0976,W,115708.953,A,A*40
$GPGSA,A,3,12,22,14,32,,,,,,,,,3.4,1.5,3.0*35
$GPGSV,3,1,11,14,59,057,31,22,41,154,34,32,32,311,29,12,20,045,30*7B
$GPGSV,3,2,11,18,05,144,28,31,80,259,,30,35,065,,27,34,238,*76
$GPGSV,3,3,11,11,11,274,,05,10,038,,20,07,317,24*41
$GPRMC,115708.953,A,3958.2933,N,08310.0976,W,0.11,110.40,040811,,,A*7F
$GPVTG,110.40,T,,M,0.11,N,0.2,K,A*0B
$GPGGA,115709.953,3958.2933,N,08310.0976,W,1,04,1.5,281.2,M,-33.2,M,,0000*62
$GPGLL,3958.2933,N,08310.0976,W,115709.953,A,A*41
$GPGSA,A,3,12,22,14,32,,,,,,,,,3.4,1.5,3.0*35
$GPGSV,3,1,11,14,59,057,31,22,41,154,33,32,32,311,29,12,20,045,30*7C
$GPGSV,3,2,11,18,05,144,28,31,80,259,,30,35,065,,27,34,238,*76
$GPGSV,3,3,11,11,11,274,,05,10,038,,20,07,317,24*41
$GPRMC,115709.953,A,3958.2933,N,08310.0976,W,0.12,121.69,040811,,,A*74
$GPVTG,121.69,T,,M,0.12,N,0.2,K,A*01
$GPGGA,115710.953,3958.2933,N,08310.0976,W,1,04,1.5,281.3,M,-33.2,M,,0000*6B
$GPGLL,3958.2933,N,08310.0976,W,115710.953,A,A*49
$GPGSA,A,3,12,22,14,32,,,,,,,,,3.4,1.5,3.0*35
$GPGSV,3,1,11,31,80,259,,14,59,057,31,22,41,154,33,30,35,065,*75
$GPGSV,3,2,11,27,34,238,,32,33,311,29,12,20,045,31,11,11,274,*79
$GPGSV,3,3,11,05,09,038,,20,07,317,24,18,05,144,26*41
$GPRMC,115710.953,A,3958.2933,N,08310.0976,W,0.11,127.81,040811,,,A*7F
$GPVTG,127.81,T,,M,0.11,N,0.2,K,A*02
$GPGGA,115711.953,3958.2933,N,08310.0976,W,1,04,1.5,281.4,M,-33.2,M,,0000*6D
$GPGLL,3958.2933,N,08310.0976,W,115711.953,A,A*48
$GPGSA,A,3,12,22,14,32,,,,,,,,,3.4,1.5,3.0*35
$GPGSV,3,1,11,31,80,259,,14,59,057,31,22,41,154,33,30,35,065,*75
$GPGSV,3,2,11,27,34,238,,32,33,311,29,12,20,045,31,11,11,274,*79
$GPGSV,3,3,11,05,09,038,,20,07,317,24,18,05,144,23*44
$GPRMC,115711.953,A,3958.2933,N,08310.0976,W,0.13,111.35,040811,,,A*76
$GPVTG,111.35,T,,M,0.13,N,0.2,K,A*0A
$GPGGA,115712.953,3958.2933,N,08310.0975,W,1,04,1.5,281.4,M,-33.2,M,,0000*6D
$GPGLL,3958.2933,N,08310.0975,W,115712.953,A,A*48
$GPGSA,A,3,12,22,14,32,,,,,,,,,3.4,1.5,3.0*35
$GPGSV,3,1,11,31,80,259,,14,59,057,31,22,41,154,33,30,35,065,*75
$GPGSV,3,2,11,27,34,238,,32,33,311,29,12,20,045,31,11,11,274,*79
$GPGSV,3,3,11,05,09,038,,20,07,317,24,18,05,144,24*43
$GPRMC,115712.953,A,3958.2933,N,08310.0975,W,0.11,107.92,040811,,,A*7E
$GPVTG,107.92,T,,M,0.11,N,0.2,K,A*02
$GPGGA,115713.953,3958.2932,N,08310.0975,W,1,04,1.5,281.4,M,-33.2,M,,0000*6D
$GPGLL,3958.2932,N,08310.0975,W,115713.953,A,A*48
$GPGSA,A,3,12,22,14,32,,,,,,,,,3.4,1.5,3.0*35
$GPGSV,3,1,11,31,80,259,,14,59,057,31,22,41,154,33,30,35,065,*75
$GPGSV,3,2,11,27,34,238,,32,33,311,29,12,20,045,31,11,11,274,*79
$GPGSV,3,3,11,05,09,038,,20,07,317,24,18,05,144,24*43
$GPRMC,115713.953,A,3958.2932,N,08310.0975,W,0.12,126.85,040811,,,A*78
$GPVTG,126.85,T,,M,0.12,N,0.2,K,A*04
$GPGGA,115714.953,3958.2932,N,08310.0975,W,1,04,1.5,281.4,M,-33.2,M,,0000*6A
$GPGLL,3958.2932,N,08310.0975,W,115714.953,A,A*4F
$GPGSA,A,3,12,22,14,32,,,,,,,,,3.4,1.5,3.0*35
$GPGSV,3,1,11,31,80,259,,14,59,057,31,22,41,154,33,30,35,065,*75
$GPGSV,3,2,11,27,34,238,,32,33,311,29,12,20,045,31,11,11,274,*79
$GPGSV,3,3,11,05,09,038,,20,07,317,24,18,05,144,24*43
$GPRMC,115714.953,A,3958.2932,N,08310.0975,W,0.12,108.78,040811,,,A*71
$GPVTG,108.78,T,,M,0.12,N,0.2,K,A*0A
$GPGGA,115715.953,3958.2932,N,08310.0975,W,1,04,1.5,281.5,M,-33.2,M,,0000*6A
$GPGLL,3958.2932,N,08310.0975,W,115715.953,A,A*4E
$GPGSA,A,3,12,22,14,32,,,,,,,,,3.4,1.5,3.0*35
$GPGSV,3,1,11,31,80,259,,14,59,057,30,22,41,154,33,30,35,065,*74
$GPGSV,3,2,11,27,34,238,,32,33,311,29,12,20,045,31,11,11,274,*79
$GPGSV,3,3,11,05,09,038,,20,07,317,24,18,05,144,24*43
$GPRMC,115715.953,A,3958.2932,N,08310.0975,W,0.13,119.73,040811,,,A*7A
$GPVTG,119.73,T,,M,0.13,N,0.2,K,A*00
$GPGGA,115716.952,3958.2932,N,08310.0975,W,1,04,1.5,281.6,M,-33.2,M,,0000*6B
$GPGLL,3958.2932,N,08310.0975,W,115716.952,A,A*4C
$GPGSA,A,3,12,22,14,32,,,,,,,,,3.4,1.5,3.0*35
$GPGSV,3,1,10,31,80,259,,14,59,057,30,22,41,154,33,30,35,064,*74
$GPGSV,3,2,10,27,34,238,,32,33,311,29,12,20,045,31,11,11,274,*78
$GPGSV,3,3,10,20,07,317,24,18,05,144,24*75
$GPRMC,115716.952,A,3958.2932,N,08310.0975,W,0.12,106.14,040811,,,A*76
$GPVTG,106.14,T,,M,0.12,N,0.2,K,A*0E
$GPGGA,115717.952,3958.2932,N,08310.0974,W,1,04,1.5,281.8,M,-33.2,M,,0000*65
$GPGLL,3958.2932,N,08310.0974,W,115717.952,A,A*4C
$GPGSA,A,3,12,22,14,32,,,,,,,,,3.4,1.5,3.0*35
$GPGSV,3,1,10,31,80,259,,14,59,057,30,22,41,154,32,30,35,064,*75
$GPGSV,3,2,10,27,34,238,,32,33,311,29,12,20,045,31,11,11,274,*78
$GPGSV,3,3,10,20,07,317,24,18,05,144,24*75
$GPRMC,115717.952,A,3958.2932,N,08310.0974,W,0.10,126.23,040811,,,A*72
$GPVTG,126.23,T,,M,0.10,N,0.2,K,A*0A
$GPGGA,115718.952,3958.2933,N,08310.0973,W,1,04,1.5,282.8,M,-33.2,M,,0000*6F
$GPGLL,3958.2933,N,08310.0973,W,115718.952,A,A*45
$GPGSA,A,3,12,22,14,32,,,,,,,,,3.4,1.5,3.0*35
$GPGSV,3,1,10,31,80,259,,14,59,057,30,22,41,154,32,30,35,064,*75
$GPGSV,3,2,10,27,34,238,,32,33,311,29,12,20,045,31,11,11,274,*78
$GPGSV,3,3,10,20,07,317,25,18,05,144,24*74
$GPRMC,115718.952,A,3958.2933,N,08310.0973,W,0.13,112.76,040811,,,A*7F
$GPVTG,112.76,T,,M,0.13,N,0.2,K,A*0E
$GPGGA,115719.952,3958.2934,N,08310.0972,W,1,04,1.5,283.6,M,-33.2,M,,0000*67
$GPGLL,3958.2934,N,08310.0972,W,115719.952,A,A*42
$GPGSA,A,3,12,22,14,32,,,,,,,,,3.4,1.5,3.0*35
$GPGSV,3,1,10,31,80,259,,14,59,057,30,22,41,154,32,30,35,064,*75
$GPGSV,3,2,10,27,34,238,,32,33,311,29,12,20,045,31,11,11,274,*78
$GPGSV,3,3,10,20,07,317,25,18,05,144,20*70
$GPRMC,115719.952,A,3958.2934,N,08310.0972,W,0.11,101.41,040811,,,A*7C
$GPVTG,101.41,T,,M,0.11,N,0.2,K,A*0A
$GPGGA,115720.952,3958.2934,N,08310.0972,W,1,04,1.5,284.1,M,-33.2,M,,0000*6D
$GPGLL,3958.2934,N,08310.0972,W,115720.952,A,A*48
$GPGSA,A,3,12,22,14,32,,,,,,,,,3.4,1.5,3.0*35
$GPGSV,3,1,10,31,80,259,,14,59,057,30,22,41,154,32,30,35,064,*75
$GPGSV,3,2,10,27,34,238,,32,33,311,29,12,20,045,31,11,11,274,*78
$GPGSV,3,3,10,20,07,317,25,18,05,144,19*7A
$GPRMC,115720.952,A,3958.2934,N,08310.0972,W,0.13,98.51,040811,,,A*44
$GPVTG,98.51,T,,M,0.13,N,0.2,K,A*38
$GPGGA,115721.952,3958.2934,N,08310.0971,W,1,04,1.5,284.6,M,-33.2,M,,0000*68
$GPGLL,3958.2934,N,08310.0971,W,115721.952,A,A*4A
$GPGSA,A,3,12,22,14,32,,,,,,,,,3.4,1.5,3.0*35
$GPGSV,3,1,10,31,80,259,,14,59,057,30,22,41,154,32,30,35,064,*75
$GPGSV,3,2,10,27,34,238,,32,33,311,29,12,20,045,31,11,11,274,*78
$GPGSV,3,3,10,20,07,317,25,18,05,144,19*7A
$GPRMC,115721.952,A,3958.2934,N,08310.0971,W,0.12,100.17,040811,,,A*75
$GPVTG,100.17,T,,M,0.12,N,0.2,K,A*0B
$GPGGA,115722.952,3958.2935,N,08310.0971,W,1,04,1.5,285.0,M,-33.2,M,,0000*6D
$GPGLL,3958.2935,N,08310.0971,W,115722.952,A,A*48
$GPGSA,A,3,12,22,14,32,,,,,,,,,3.4,1.5,3.0*35
$GPGSV,3,1,10,31,80,259,,14,59,057,30,22,41,154,32,30,35,064,*75
$GPGSV,3,2,10,27,34,238,,32,33,311,29,12,20,045,31,11,11,274,*78
$GPGSV,3,3,10,20,07,317,25,18,05,144,19*7A
$GPRMC,115722.952,A,3958.2935,N,08310.0971,W,0.09,112.28,040811,,,A*72
$GPVTG,112.28,T,,M,0.09,N,0.2,K,A*0E
$GPGGA,115723.952,3958.2935,N,08310.0971,W,1,04,1.5,285.2,M,-33.2,M,,0000*6E
$GPGLL,3958.2935,N,08310.0971,W,115723.952,A,A*49
$GPGSA,A,3,12,22,14,32,,,,,,,,,3.4,1.5,3.0*35
$GPGSV,3,1,10,31,80,259,,14,59,057,30,22,41,154,32,30,35,064,*75
$GPGSV,3,2,10,27,34,238,,32,33,311,30,12,20,045,31,11,11,274,*70
$GPGSV,3,3,10,20,07,317,25,18,05,144,19*7A
$GPRMC,115723.952,A,3958.2935,N,08310.0971,W,0.14,100.84,040811,,,A*7A
$GPVTG,100.84,T,,M,0.14,N,0.3,K,A*06
$GPGGA,115724.952,3958.2935,N,08310.0970,W,1,04,1.5,285.4,M,-33.2,M,,0000*6E
$GPGLL,3958.2935,N,08310.0970,W,115724.952,A,A*4F
$GPGSA,A,3,12,22,14,32,,,,,,,,,3.4,1.5,3.0*35
$GPGSV,3,1,10,31,80,259,,14,59,057,30,22,41,154,32,30,35,064,*75
$GPGSV,3,2,10,27,34,238,,32,33,311,30,12,20,045,31,11,11,274,*70
$GPGSV,3,3,10,20,07,317,25,18,05,144,19*7A
$GPRMC,115724.952,A,3958.2935,N,08310.0970,W,0.12,104.82,040811,,,A*78
$GPVTG,104.82,T,,M,0.12,N,0.2,K,A*03
$GPGGA,115725.952,3958.2935,N,08310.0970,W,1,04,1.5,285.5,M,-33.2,M,,0000*6E
$GPGLL,3958.2935,N,08310.0970,W,115725.952,A,A*4E
$GPGSA,A,3,12,22,14,32,,,,,,,,,3.4,1.5,3.0*35
$GPGSV,3,1,10,31,80,259,,14,59,057,30,22,41,154,32,30,35,064,*75
$GPGSV,3,2,10,27,34,238,,32,33,311,30,12,20,045,31,11,11,274,*70
$GPGSV,3,3,10,20,07,317,25,18,05,144,19*7A
$GPRMC,115725.952,A,3958.2935,N,08310.0970,W,0.12,100.39,040811,,,A*7D
$GPVTG,100.39,T,,M,0.12,N,0.2,K,A*07
$GPGGA,115726.953,3958.2934,N,08310.0970,W,1,04,1.5,285.6,M,-33.2,M,,0000*6E
$GPGLL,3958.2934,N,08310.0970,W,115726.953,A,A*4D
$GPGSA,A,3,12,22,14,32,,,,,,,,,3.4,1.5,3.0*35
$GPGSV,3,1,10,31,80,259,,14,59,057,30,22,41,154,32,30,35,064,*75
$GPGSV,3,2,10,27,34,238,,32,33,311,30,12,20,045,31,11,11,274,*70
$GPGSV,3,3,10,20,07,317,25,18,05,144,19*7A
$GPRMC,115726.953,A,3958.2934,N,08310.0970,W,0.09,100.98,040811,,,A*7F
$GPVTG,100.98,T,,M,0.09,N,0.2,K,A*06
$GPGGA,115727.953,3958.2934,N,08310.0970,W,1,04,1.5,285.7,M,-33.2,M,,0000*6E
$GPGLL,3958.2934,N,08310.0970,W,115727.953,A,A*4C
$GPGSA,A,3,12,22,14,32,,,,,,,,,3.4,1.5,3.0*35
$GPGSV,3,1,10,31,80,259,,14,59,057,30,22,41,154,32,30,35,064,*75
$GPGSV,3,2,10,27,34,238,,32,33,311,30,12,20,045,31,11,11,274,*70
$GPGSV,3,3,10,20,07,317,25,18,05,144,19*7A
$GPRMC,115727.953,A,3958.2934,N,08310.0970,W,0.12,113.57,040811,,,A*75
$GPVTG,113.57,T,,M,0.12,N,0.2,K,A*0D
$GPGGA,115728.953,3958.2934,N,08310.0969,W,1,04,1.5,285.7,M,-33.2,M,,0000*69
$GPGLL,3958.2934,N,08310.0969,W,115728.953,A,A*4B
$GPGSA,A,3,12,22,14,32,,,,,,,,,3.4,1.5,3.0*35
$GPGSV,3,1,10,31,80,259,,14,59,057,30,22,41,154,32,30,35,064,*75
$GPGSV,3,2,10,27,34,238,,32,33,311,30,12,20,045,31,11,11,274,*70
$GPGSV,3,3,10,20,07,317,25,18,05,144,20*70
$GPRMC,115728.953,A,3958.2934,N,08310.0969,W,0.12,94.89,040811,,,A*4F
$GPVTG,94.89,T,,M,0.12,N,0.2,K,A*30
$GPGGA,115729.953,3958.2934,N,08310.0969,W,1,04,1.5,285.7,M,-33.2,M,,0000*68
$GPGLL,3958.2934,N,08310.0969,W,115729.953,A,A*4A
$GPGSA,A,3,12,22,14,32,,,,,,,,,3.4,1.5,3.0*35
$GPGSV,3,1,10,31,80,259,,14,59,057,30,22,41,154,32,30,35,064,*75
$GPGSV,3,2,10,27,34,238,,32,33,311,30,12,20,045,31,11,11,274,*70
$GPGSV,3,3,10,20,07,317,25,18,05,144,20*70
$GPRMC,115729.953,A,3958.2934,N,08310.0969,W,0.11,108.89,040811,,,A*79
$GPVTG,108.89,T,,M,0.11,N,0.2,K,A*07
$GPGGA,115730.953,3958.2934,N,08310.0969,W,1,04,1.5,285.7,M,-33.2,M,,0000*60
$GPGLL,3958.2934,N,08310.0969,W,115730.953,A,A*42
$GPGSA,A,3,12,22,14,32,,,,,,,,,3.4,1.5,3.0*35
$GPGSV,3,1,10,31,80,259,,14,59,057,30,22,41,154,32,30,35,064,*75
$GPGSV,3,2,10,27,34,238,,32,33,311,30,12,20,045,31,11,11,274,*70
$GPGSV,3,3,10,20,07,317,25,18,05,144,19*7A
$GPRMC,115730.953,A,3958.2934,N,08310.0969,W,0.12,109.61,040811,,,A*75
$GPVTG,109.61,T,,M,0.12,N,0.2,K,A*03
$GPGGA,115731.953,3958.2934,N,08310.0969,W,1,04,1.5,285.7,M,-33.2,M,,0000*61
$GPGLL,3958.2934,N,08310.0969,W,115731.953,A,A*43
$GPGSA,A,3,12,22,14,32,,,,,,,,,3.4,1.5,3.0*35
$GPGSV,3,1,10,31,80,259,,14,59,057,30,22,41,154,32,30,35,064,*75
$GPGSV,3,2,10,27,34,238,,32,33,311,30,12,20,045,31,11,11,274,*70
$GPGSV,3,3,10,20,07,317,25,18,05,144,19*7A
$GPRMC,115731.953,A,3958.2934,N,08310.0969,W,0.11,110.20,040811,,,A*7A
$GPVTG,110.20,T,,M,0.11,N,0.2,K,A*0D
$GPGGA,115732.953,3958.2933,N,08310.0968,W,1,04,1.5,285.6,M,-33.2,M,,0000*65
$GPGLL,3958.2933,N,08310.0968,W,115732.953,A,A*46
$GPGSA,A,3,12,22,14,32,,,,,,,,,3.4,1.5,3.0*35
$GPGSV,3,1,10,31,80,259,,14,59,057,30,22,41,154,32,30,35,064,*75
$GPGSV,3,2,10,27,34,238,,32,33,311,30,12,20,045,31,11,11,274,*70
$GPGSV,3,3,10,20,07,317,25,18,05,144,19*7A
$GPRMC,115732.953,A,3958.2933,N,08310.0968,W,0.12,106.10,040811,,,A*78
$GPVTG,106.10,T,,M,0.12,N,0.2,K,A*0A
$GPGGA,115733.953,3958.2933,N,08310.0968,W,1,04,1.5,285.6,M,-33.2,M,,0000*64
$GPGLL,3958.2933,N,08310.0968,W,115733.953,A,A*47
$GPGSA,A,3,12,22,14,32,,,,,,,,,3.4,1.5,3.0*35
$GPGSV,3,1,10,31,80,259,,14,59,057,30,22,41,154,33,30,35,064,*74
$GPGSV,3,2,10,27,34,238,,32,33,311,30,12,20,045,31,11,11,274,*70
$GPGSV,3,3,10,20,07,317,25,18,05,144,19*7A
$GPRMC,115733.953,A,3958.2933,N,08310.0968,W,0.11,113.13,040811,,,A*7D
$GPVTG,113.13,T,,M,0.11,N,0.2,K,A*0E
$GPGGA,115734.953,3958.2933,N,08310.0968,W,1,04,1.5,285.5,M,-33.2,M,,0000*60
$GPGLL,3958.2933,N,08310.0968,W,115734.953,A,A*40
$GPGSA,A,3,12,22,14,32,,,,,,,,,3.4,1.5,3.0*35
$GPGSV,3,1,10,31,80,259,,14,59,057,30,22,41,154,33,30,35,064,*74
$GPGSV,3,2,10,27,34,238,,32,33,311,30,12,20,045,31,11,11,274,*70
$GPGSV,3,3,10,20,07,317,25,18,05,144,19*7A
$GPRMC,115734.953,A,3958.2933,N,08310.0968,W,0.12,106.59,040811,,,A*73
$GPVTG,106.59,T,,M,0.12,N,0.2,K,A*07
$GPGGA,115735.953,3958.2933,N,08310.0967,W,1,04,1.5,285.4,M,-33.2,M,,0000*6F
$GPGLL,3958.2933,N,08310.0967,W,115735.953,A,A*4E
$GPGSA,A,3,12,22,14,32,,,,,,,,,3.4,1.5,3.0*35
$GPGSV,3,1,10,31,80,259,,14,59,057,30,22,41,154,33,30,35,064,*74
$GPGSV,3,2,10,27,34,238,,32,33,311,30,12,20,045,31,11,11,274,*70
$GPGSV,3,3,10,20,07,317,25,18,05,144,19*7A
$GPRMC,115735.953,A,3958.2933,N,08310.0967,W,0.11,110.08,040811,,,A*7D
$GPVTG,110.08,T,,M,0.11,N,0.2,K,A*07
$GPGGA,115736.953,3958.2933,N,08310.0967,W,1,04,1.5,285.3,M,-33.2,M,,0000*6B
$GPGLL,3958.2933,N,08310.0967,W,115736.953,A,A*4D
$GPGSA,A,3,12,22,14,32,,,,,,,,,3.4,1.5,3.0*35
$GPGSV,3,1,10,31,80,259,,14,59,057,30,22,41,154,33,30,35,064,*74
$GPGSV,3,2,10,27,34,238,,32,33,311,30,12,20,045,31,11,11,274,*70
$GPGSV,3,3,10,20,07,317,25,18,05,144,19*7A
$GPRMC,115736.953,A,3958.2933,N,08310.0967,W,0.13,114.99,040811,,,A*70
$GPVTG,114.99,T,,M,0.13,N,0.2,K,A*09
$GPGGA,115737.953,3958.2932,N,08310.0966,W,1,04,1.5,285.2,M,-33.2,M,,0000*6B
$GPGLL,3958.2932,N,08310.0966,W,115737.953,A,A*4C
$GPGSA,A,3,12,22,14,32,,,,,,,,,3.4,1.5,3.0*35
$GPGSV,3,1,10,31,80,259,,14,59,057,30,22,41,154,33,30,35,064,*74
$GPGSV,3,2,10,27,34,238,,32,33,311,30,12,20,045,31,11,11,274,*70
$GPGSV,3,3,10,20,07,317,25,18,05,144,19*7A
$GPRMC,115737.953,A,3958.2932,N,08310.0966,W,0.11,117.24,040811,,,A*76
$GPVTG,117.24,T,,M,0.11,N,0.2,K,A*0E
$GPGGA,115738.953,3958.2932,N,08310.0966,W,1,04,1.5,285.1,M,-33.2,M,,0000*67
$GPGLL,3958.2932,N,08310.0966,W,115738.953,A,A*43
$GPGSA,A,3,12,22,14,32,,,,,,,,,3.4,1.5,3.0*35
$GPGSV,3,1,10,31,80,259,,14,59,057,30,22,41,154,33,30,35,064,*74
$GPGSV,3,2,10,27,34,238,,32,33,311,30,12,20,045,31,11,11,274,*70
$GPGSV,3,3,10,20,07,317,25,18,05,144,19*7A
$GPRMC,115738.953,A,3958.2932,N,08310.0966,W,0.12,114.64,040811,,,A*7D
$GPVTG,114.64,T,,M,0.12,N,0.2,K,A*0A
$GPGGA,115739.953,3958.2932,N,08310.0966,W,1,04,1.5,285.0,M,-33.2,M,,0000*67
$GPGLL,3958.2932,N,08310.0966,W,115739.953,A,A*42
$GPGSA,A,3,12,22,14,32,,,,,,,,,3.4,1.5,3.0*35
$GPGSV,3,1,10,31,80,259,,14,59,057,30,22,41,154,33,30,35,064,*74
$GPGSV,3,2,10,27,34,238,,32,33,311,30,12,20,045,31,11,11,274,*70
$GPGSV,3,3,10,20,07,317,25,18,05,144,20*70
$GPRMC,115739.953,A,3958.2932,N,08310.0966,W,0.13,114.21,040811,,,A*7C
$GPVTG,114.21,T,,M,0.13,N,0.2,K,A*0A
$GPGGA,115740.953,3958.2932,N,08310.0965,W,1,04,1.5,284.8,M,-33.2,M,,0000*63
$GPGLL,3958.2932,N,08310.0965,W,115740.953,A,A*4F
$GPGSA,A,3,12,22,14,32,,,,,,,,,3.4,1.5,3.0*35
$GPGSV,3,1,10,31,80,259,,14,59,057,30,22,41,154,33,30,35,064,*74
$GPGSV,3,2,10,27,34,238,,32,33,311,30,12,20,045,31,11,11,274,*70
$GPGSV,3,3,10,20,07,317,25,18,05,144,20*70
$GPRMC,115740.953,A,3958.2932,N,08310.0965,W,0.12,118.59,040811,,,A*73
$GPVTG,118.59,T,,M,0.12,N,0.2,K,A*08
$GPGGA,115741.953,3958.2931,N,08310.0965,W,1,04,1.5,284.6,M,-33.2,M,,0000*6F
$GPGLL,3958.2931,N,08310.0965,W,115741.953,A,A*4D
$GPGSA,A,3,12,22,14,32,,,,,,,,,3.4,1.5,3.0*35
$GPGSV,3,1,10,31,80,259,,14,59,057,30,22,41,154,34,30,35,064,*73
$GPGSV,3,2,10,27,34,238,,32,33,311,31,12,20,045,31,11,11,274,*71
$GPGSV,3,3,10,20,07,317,26,18,05,144,20*73
$GPRMC,115741.953,A,3958.2931,N,08310.0965,W,0.12,108.11,040811,,,A*7C
$GPVTG,108.11,T,,M,0.12,N,0.2,K,A*05
$GPGGA,115742.953,3958.2931,N,08310.0964,W,1,04,1.5,284.5,M,-33.2,M,,0000*6E
$GPGLL,3958.2931,N,08310.0964,W,115742.953,A,A*4F
$GPGSA,A,3,12,22,14,32,,,,,,,,,3.4,1.5,3.0*35
$GPGSV,3,1,10,31,80,259,,14,59,057,30,22,41,154,34,30,35,064,*73
$GPGSV,3,2,10,27,34,238,,32,33,311,31,12,20,045,31,11,11,274,*71
$GPGSV,3,3,10,20,07,317,26,18,05,144,20*73
$GPRMC,115742.953,A,3958.2931,N,08310.0964,W,0.12,123.44,040811,,,A*77
$GPVTG,123.44,T,,M,0.12,N,0.2,K,A*0C
$GPGGA,115743.953,3958.2931,N,08310.0964,W,1,04,1.5,284.3,M,-33.2,M,,0000*69
$GPGLL,3958.2931,N,08310.0964,W,115743.953,A,A*4E
$GPGSA,A,3,12,22,14,32,,,,,,,,,3.4,1.5,3.0*35
$GPGSV,3,1,10,31,80,259,,14,59,057,30,22,41,154,34,30,35,064,*73
$GPGSV,3,2,10,27,34,238,,32,33,311,31,12,20,045,31,11,11,274,*71
$GPGSV,3,3,10,20,07,317,25,18,05,144,20*70
$GPRMC,115743.953,A,3958.2931,N,08310.0964,W,0.11,113.20,040811,,,A*74
$GPVTG,113.20,T,,M,0.11,N,0.2,K,A*0E
$GPGGA,115744.953,3958.2931,N,08310.0964,W,1,04,1.5,284.1,M,-33.2,M,,0000*6C
$GPGLL,3958.2931,N,08310.0964,W,115744.953,A,A*49
$GPGSA,A,3,12,22,14,32,,,,,,,,,3.4,1.5,3.0*35
$GPGSV,3,1,10,31,80,259,,14,59,057,30,22,41,154,34,30,35,064,*73
$GPGSV,3,2,10,27,34,238,,32,33,311,31,12,20,045,31,11,11,274,*71
$GPGSV,3,3,10,20,07,317,26,18,05,144,21*72
$GPRMC,115744.953,A,3958.2931,N,08310.0964,W,0.12,126.19,040811,,,A*7C
$GPVTG,126.19,T,,M,0.12,N,0.2,K,A*01
$GPGGA,115745.953,3958.2930,N,08310.0963,W,1,04,1.5,283.9,M,-33.2,M,,0000*64
$GPGLL,3958.2930,N,08310.0963,W,115745.953,A,A*4E
$GPGSA,A,3,12,22,14,32,,,,,,,,,3.4,1.5,3.0*35
$GPGSV,3,1,10,31,80,259,,14,59,057,30,22,41,154,34,30,35,064,*73
$GPGSV,3,2,10,27,34,238,,32,33,311,31,12,20,045,31,11,11,274,*71
$GPGSV,3,3,10,20,07,317,26,18,05,144,21*72
$GPRMC,115745.953,A,3958.2930,N,08310.0963,W,0.11,116.76,040811,,,A*72
$GPVTG,116.76,T,,M,0.11,N,0.2,K,A*08
$GPGGA,115746.953,3958.2930,N,08310.0963,W,1,04,1.5,283.8,M,-33.2,M,,0000*66
$GPGLL,3958.2930,N,08310.0963,W,115746.953,A,A*4D
$GPGSA,A,3,12,22,14,32,,,,,,,,,3.4,1.5,3.0*35
$GPGSV,3,1,10,31,80,260,,14,59,057,30,22,41,154,34,30,35,064,*79
$GPGSV,3,2,10,27,34,239,,32,33,311,31,12,20,044,31,11,11,274,*71
$GPGSV,3,3,10,20,07,317,26,18,05,144,21*72
$GPRMC,115746.953,A,3958.2930,N,08310.0963,W,0.14,121.70,040811,,,A*76
$GPVTG,121.70,T,,M,0.14,N,0.3,K,A*0E
$GPGGA,115747.953,3958.2930,N,08310.0963,W,1,04,1.5,283.6,M,-33.2,M,,0000*69
$GPGLL,3958.2930,N,08310.0963,W,115747.953,A,A*4C
$GPGSA,A,3,12,22,14,32,,,,,,,,,3.4,1.5,3.0*35
$GPGSV,3,1,10,31,80,260,,14,59,057,30,22,41,154,34,30,35,064,*79
$GPGSV,3,2,10,27,34,239,,32,33,311,31,12,20,044,31,11,11,274,*71
$GPGSV,3,3,10,20,07,317,26,18,05,144,21*72
$GPRMC,115747.953,A,3958.2930,N,08310.0963,W,0.12,121.35,040811,,,A*70
$GPVTG,121.35,T,,M,0.12,N,0.2,K,A*08
$GPGGA,115748.953,3958.2930,N,08310.0962,W,1,04,1.5,283.5,M,-33.2,M,,0000*64
$GPGLL,3958.2930,N,08310.0962,W,115748.953,A,A*42
$GPGSA,A,3,12,22,14,32,,,,,,,,,3.4,1.5,3.0*35
$GPGSV,3,1,10,31,80,260,,14,59,057,30,22,41,154,34,30,35,064,*79
$GPGSV,3,2,10,27,34,239,,32,33,311,31,12,20,044,31,11,11,274,*71
$GPGSV,3,3,10,20,07,317,26,18,05,144,21*72
$GPRMC,115748.953,A,3958.2930,N,08310.0962,W,0.12,126.55,040811,,,A*7F
$GPVTG,126.55,T,,M,0.12,N,0.2,K,A*09
$GPGGA,115749.953,3958.2930,N,08310.0962,W,1,04,1.5,283.3,M,-33.2,M,,0000*63
$GPGLL,3958.2930,N,08310.0962,W,115749.953,A,A*43
$GPGSA,A,3,12,22,14,32,,,,,,,,,3.4,1.5,3.0*35
$GPGSV,3,1,10,31,80,260,,14,59,057,30,22,41,154,34,30,35,064,*79
$GPGSV,3,2,10,27,34,239,,32,33,311,31,12,20,044,31,11,11,274,*71
$GPGSV,3,3,10,20,07,317,26,18,05,144,22*71
$GPRMC,115749.953,A,3958.2930,N,08310.0962,W,0.11,115.73,040811,,,A*79
$GPVTG,115.73,T,,M,0.11,N,0.2,K,A*0E
$GPGGA,115750.952,3958.2929,N,08310.0961,W,1,04,1.5,283.2,M,-33.2,M,,0000*60
$GPGLL,3958.2929,N,08310.0961,W,115750.952,A,A*41
$GPGSA,A,3,12,22,14,32,,,,,,,,,3.4,1.5,3.0*35
$GPGSV,3,1,10,31,80,260,,14,59,057,30,22,41,154,34,30,35,064,*79
$GPGSV,3,2,10,27,34,239,,32,33,311,31,12,20,044,31,11,11,274,*71
$GPGSV,3,3,10,20,07,317,26,18,05,144,22*71
$GPRMC,115750.952,A,3958.2929,N,08310.0961,W,0.14,125.98,040811,,,A*78
$GPVTG,125.98,T,,M,0.14,N,0.3,K,A*0C
$GPGGA,115751.952,3958.2929,N,08310.0961,W,1,04,1.5,283.1,M,-33.2,M,,0000*62
$GPGLL,3958.2929,N,08310.0961,W,115751.952,A,A*40
$GPGSA,A,3,12,22,14,32,,,,,,,,,3.4,1.5,3.0*35
$GPGSV,3,1,10,31,80,260,,14,59,057,30,22,41,154,34,30,35,064,*79
$GPGSV,3,2,10,27,34,239,,32,33,311,31,12,20,044,31,11,11,274,*71
$GPGSV,3,3,10,20,07,317,26,18,05,144,22*71
$GPRMC,115751.952,A,3958.2929,N,08310.0961,W,0.10,127.27,040811,,,A*7B
$GPVTG,127.27,T,,M,0.10,N,0.2,K,A*0F
$GPGGA,115752.952,3958.2929,N,08310.0961,W,1,04,1.5,283.0,M,-33.2,M,,0000*60
$GPGLL,3958.2929,N,08310.0961,W,115752.952,A,A*43
$GPGSA,A,3,12,22,14,32,,,,,,,,,3.4,1.5,3.0*35
$GPGSV,3,1,10,31,80,260,,14,59,057,30,22,41,154,34,30,35,064,*79
$GPGSV,3,2,10,27,34,239,,32,33,311,31,12,20,044,31,11,11,274,*71
$GPGSV,3,3,10,20,07,317,26,18,05,144,23*70
$GPRMC,115752.952,A,3958.2929,N,08310.0961,W,0.13,116.57,040811,,,A*7E
$GPVTG,116.57,T,,M,0.13,N,0.2,K,A*09
$GPGGA,115753.952,3958.2929,N,08310.0960,W,1,04,1.5,282.9,M,-33.2,M,,0000*68
$GPGLL,3958.2929,N,08310.0960,W,115753.952,A,A*43
$GPGSA,A,3,12,22,14,32,,,,,,,,,3.4,1.5,3.0*35
$GPGSV,3,1,10,31,80,260,,14,59,057,30,22,41,154,34,30,35,064,*79
$GPGSV,3,2,10,27,34,239,,32,33,311,31,12,20,044,31,11,11,274,*71
$GPGSV,3,3,10,20,07,317,26,18,05,144,23*70
$GPRMC,115753.952,A,3958.2929,N,08310.0960,W,0.11,120.50,040811,,,A*7E
$GPVTG,120.50,T,,M,0.11,N,0.2,K,A*09
$GPGGA,115754.952,3958.2929,N,08310.0960,W,1,04,1.5,282.8,M,-33.2,M,,0000*6E
$GPGLL,3958.2929,N,08310.0960,W,115754.952,A,A*44
$GPGSA,A,3,12,22,14,32,,,,,,,,,3.4,1.5,3.0*35
$GPGSV,3,1,10,31,80,260,,14,59,057,30,22,41,154,34,30,35,064,*79
$GPGSV,3,2,10,27,34,239,,32,33,311,31,12,20,044,31,11,11,274,*71
$GPGSV,3,3,10,20,07,317,26,18,05,144,23*70
$GPRMC,115754.952,A,3958.2929,N,08310.0960,W,0.13,121.24,040811,,,A*79
$GPVTG,121.24,T,,M,0.13,N,0.2,K,A*09
$GPGGA,115755.952,3958.2929,N,08310.0960,W,1,04,1.5,282.7,M,-33.2,M,,0000*60
$GPGLL,3958.2929,N,08310.0960,W,115755.952,A,A*45
$GPGSA,A,3,12,22,14,32,,,,,,,,,3.4,1.5,3.0*35
$GPGSV,3,1,10,31,80,260,,14,59,057,30,22,41,154,34,30,35,064,*79
$GPGSV,3,2,10,27,34,239,,32,33,311,31,12,20,044,31,11,11,274,*71
$GPGSV,3,3,10,20,07,317,26,18,05,144,23*70
$GPRMC,115755.952,A,3958.2929,N,08310.0960,W,0.12,121.06,040811,,,A*79
$GPVTG,121.06,T,,M,0.12,N,0.2,K,A*08
$GPGGA,115756.952,3958.2929,N,08310.0959,W,1,04,1.5,282.7,M,-33.2,M,,0000*69
$GPGLL,3958.2929,N,08310.0959,W,115756.952,A,A*4C
$GPGSA,A,3,12,22,14,32,,,,,,,,,3.4,1.5,3.0*35
$GPGSV,3,1,10,31,80,260,,14,59,057,30,22,41,154,34,30,35,064,*79
$GPGSV,3,2,10,27,34,239,,32,33,311,30,12,20,044,31,11,11,274,*70
$GPGSV,3,3,10,20,07,317,26,18,05,144,24*77
$GPRMC,115756.952,A,3958.2929,N,08310.0959,W,0.13,116.91,040811,,,A*7B
$GPVTG,116.91,T,,M,0.13,N,0.2,K,A*03
$GPGGA,115757.952,3958.2929,N,08310.0959,W,1,04,1.5,282.7,M,-33.2,M,,0000*68
$GPGLL,3958.2929,N,08310.0959,W,115757.952,A,A*4D
$GPGSA,A,3,12,22,14,32,,,,,,,,,3.4,1.5,3.0*35
$GPGSV,3,1,10,31,80,260,,14,59,057,30,22,41,154,34,30,35,064,*79
$GPGSV,3,2,10,27,34,239,,32,33,311,30,12,20,044,31,11,11,274,*70
$GPGSV,3,3,10,20,07,317,26,18,05,144,24*77
$GPRMC,115757.952,A,3958.2929,N,08310.0959,W,0.12,114.88,040811,,,A*71
$GPVTG,114.88,T,,M,0.12,N,0.2,K,A*08
$GPGGA,115758.952,3958.2929,N,08310.0958,W,1,04,1.5,282.6,M,-33.2,M,,0000*67
$GPGLL,3958.2929,N,08310.0958,W,115758.952,A,A*43
$GPGSA,A,3,12,22,14,32,,,,,,,,,3.4,1.5,3.0*35
$GPGSV,3,1,10,31,80,260,,14,59,057,30,22,41,154,34,30,35,064,*79
$GPGSV,3,2,10,27,34,239,,32,33,311,30,12,20,044,31,11,11,274,*70
$GPGSV,3,3,10,20,07,317,26,18,05,144,24*77
$GPRMC,115758.952,A,3958.2929,N,08310.0958,W,0.11,122.48,040811,,,A*75
$GPVTG,122.48,T,,M,0.11,N,0.2,K,A*02
$GPGGA,115759.952,3958.2929,N,08310.0958,W,1,04,1.5,282.6,M,-33.2,M,,0000*66
$GPGLL,3958.2929,N,08310.0958,W,115759.952,A,A*42
$GPGSA,A,3,12,22,14,32,,,,,,,,,3.4,1.5,3.0*35
$GPGSV,3,1,10,31,80,260,27,14,59,057,30,22,41,154,34,30,35,064,*7C
$GPGSV,3,2,10,27,34,239,,32,33,311,30,12,20,044,32,11,11,274,*73
$GPGSV,3,3,10,20,07,317,26,18,05,144,24*77
$GPRMC,115759.952,A,3958.2929,N,08310.0958,W,0.13,117.56,040811,,,A*7F
$GPVTG,117.56,T,,M,0.13,N,0.2,K,A*09
$GPGGA,115800.952,3958.2928,N,08310.0958,W,1,04,1.5,282.6,M,-33.2,M,,0000*64
$GPGLL,3958.2928,N,08310.0958,W,115800.952,A,A*40
$GPGSA,A,3,12,22,14,32,,,,,,,,,3.4,1.5,3.0*35
$GPGSV,3,1,10,31,80,260,27,14,59,057,30,22,41,154,34,30,35,064,*7C
$GPGSV,3,2,10,27,34,239,,32,33,311,30,12,20,044,32,11,11,274,*73
$GPGSV,3,3,10,20,07,317,26,18,05,144,24*77
$GPRMC,115800.952,A,3958.2928,N,08310.0958,W,0.11,121.09,040811,,,A*70
$GPVTG,121.09,T,,M,0.11,N,0.2,K,A*04
$GPGGA,115801.952,3958.2929,N,08310.0957,W,1,04,1.5,282.6,M,-33.2,M,,0000*6B
$GPGLL,3958.2929,N,08310.0957,W,115801.952,A,A*4F
$GPGSA,A,3,12,22,14,32,,,,,,,,,3.4,1.5,3.0*35
$GPGSV,3,1,10,31,80,260,27,14,59,057,29,22,41,154,34,30,35,064,*74
$GPGSV,3,2,10,27,34,239,,32,33,311,30,12,20,044,32,11,11,274,*73
$GPGSV,3,3,10,20,07,317,26,18,05,144,24*77
$GPRMC,115801.952,A,3958.2929,N,08310.0957,W,0.12,114.23,040811,,,A*72
$GPVTG,114.23,T,,M,0.12,N,0.2,K,A*09
$GPGGA,115802.952,3958.2929,N,08310.0957,W,1,04,1.5,282.7,M,-33.2,M,,0000*69
$GPGLL,3958.2929,N,08310.0957,W,115802.952,A,A*4C
$GPGSA,A,3,12,22,14,32,,,,,,,,,3.4,1.5,3.0*35
$GPGSV,3,1,10,31,80,260,26,14,59,057,29,22,41,154,34,30,35,064,*75
$GPGSV,3,2,10,27,34,239,,32,33,311,30,12,20,044,32,11,11,274,*73
$GPGSV,3,3,10,20,07,317,26,18,05,144,23*70
$GPRMC,115802.952,A,3958.2929,N,08310.0957,W,0.12,107.63,040811,,,A*77
$GPVTG,107.63,T,,M,0.12,N,0.2,K,A*0F
$GPGGA,115803.952,3958.2929,N,08310.0956,W,1,04,1.5,282.7,M,-33.2,M,,0000*69
$GPGLL,3958.2929,N,08310.0956,W,115803.952,A,A*4C
$GPGSA,A,3,12,22,14,32,,,,,,,,,3.4,1.5,3.0*35
$GPGSV,3,1,10,31,80,260,27,14,59,057,29,22,41,154,34,30,35,064,*74
$GPGSV,3,2,10,27,34,239,,32,33,311,30,12,20,044,32,11,11,274,*73
$GPGSV,3,3,10,20,07,317,26,18,05,144,14*74
$GPRMC,115803.952,A,3958.2929,N,08310.0956,W,0.14,111.15,040811,,,A*77
$GPVTG,111.15,T,,M,0.14,N,0.3,K,A*0E
$GPGGA,115804.952,3958.2929,N,08310.0956,W,1,04,1.5,282.8,M,-33.2,M,,0000*61
$GPGLL,3958.2929,N,08310.0956,W,115804.952,A,A*4B
$GPGSA,A,3,12,22,14,32,,,,,,,,,3.4,1.5,3.0*35
$GPGSV,3,1,10,31,80,260,27,14,59,057,29,22,41,154,33,30,35,064,*73
$GPGSV,3,2,10,27,34,239,,32,33,311,30,12,20,044,32,11,11,274,*73
$GPGSV,3,3,10,20,07,317,26,18,05,144,14*74
$GPRMC,115804.952,A,3958.2929,N,08310.0956,W,0.11,108.42,040811,,,A*7F
$GPVTG,108.42,T,,M,0.11,N,0.2,K,A*00
$GPGGA,115805.952,3958.2929,N,08310.0956,W,1,04,1.5,282.8,M,-33.2,M,,0000*60
$GPGLL,3958.2929,N,08310.0956,W,115805.952,A,A*4A
$GPGSA,A,3,12,22,14,32,,,,,,,,,3.4,1.5,3.0*35
$GPGSV,3,1,10,31,80,260,27,14,59,057,29,22,41,154,33,30,35,064,*73
$GPGSV,3,2,10,27,34,239,,32,33,311,30,12,20,044,32,11,11,274,*73
$GPGSV,3,3,10,20,07,317,26,18,05,144,14*74
$GPRMC,115805.952,A,3958.2929,N,08310.0956,W,0.13,120.33,040811,,,A*70
$GPVTG,120.33,T,,M,0.13,N,0.2,K,A*0E
$GPGGA,115806.952,3958.2929,N,08310.0955,W,1,04,1.5,282.8,M,-33.2,M,,0000*60
$GPGLL,3958.2929,N,08310.0955,W,115806.952,A,A*4A
$GPGSA,A,3,12,22,14,32,,,,,,,,,3.4,1.5,3.0*35
$GPGSV,3,1,10,31,80,260,27,14,59,057,30,22,41,154,33,30,35,064,*7B
$GPGSV,3,2,10,27,34,239,,32,33,311,30,12,20,044,32,11,11,274,*73
$GPGSV,3,3,10,20,07,317,26,18,05,144,14*74
$GPRMC,115806.952,A,3958.2929,N,08310.0955,W,0.12,109.53,040811,,,A*7C
$GPVTG,109.53,T,,M,0.12,N,0.2,K,A*02
$GPGGA,115807.952,3958.2929,N,08310.0955,W,1,04,1.5,282.8,M,-33.2,M,,0000*61
$GPGLL,3958.2929,N,08310.0955,W,115807.952,A,A*4B
$GPGSA,A,3,12,22,14,32,,,,,,,,,3.4,1.5,3.0*35
$GPGSV,3,1,10,31,80,260,27,14,59,057,30,22,41,154,33,30,35,064,*7B
$GPGSV,3,2,10,27,34,239,,32,33,311,30,12,20,044,32,11,11,274,*73
$GPGSV,3,3,10,20,07,317,26,18,05,144,16*76
$GPRMC,115807.952,A,3958.2929,N,08310.0955,W,0.11,108.04,040811,,,A*7D
$GPVTG,108.04,T,,M,0.11,N,0.2,K,A*02
$GPGGA,115808.952,3958.2929,N,08310.0955,W,1,04,1.5,282.9,M,-33.2,M,,0000*6F
$GPGLL,3958.2929,N,08310.0955,W,115808.952,A,A*44
$GPGSA,A,3,12,22,14,32,,,,,,,,,3.4,1.5,3.0*35
$GPGSV,3,1,10,31,80,260,27,14,59,057,30,22,41,154,33,30,35,064,*7B
$GPGSV,3,2,10,27,34,239,,32,33,311,29,12,20,044,32,11,11,274,*7B
$GPGSV,3,3,10,20,07,317,26,18,05,144,17*77
$GPRMC,115808.952,A,3958.2929,N,08310.0955,W,0.13,113.84,040811,,,A*72
$GPVTG,113.84,T,,M,0.13,N,0.2,K,A*02
$GPGGA,115809.952,3958.2929,N,08310.0954,W,1,04,1.5,282.9,M,-33.2,M,,0000*6F
$GPGLL,3958.2929,N,08310.0954,W,115809.952,A,A*44
$GPGSA,A,3,12,22,14,32,,,,,,,,,3.4,1.5,3.0*35
$GPGSV,3,1,10,31,80,260,27,14,59,057,30,22,41,154,33,30,35,064,*7B
$GPGSV,3,2,10,27,34,239,,32,33,311,29,12,20,044,32,11,11,274,*7B
$GPGSV,3,3,10,20,07,317,26,18,05,144,18*78
$GPRMC,115809.952,A,3958.2929,N,08310.0954,W,0.11,111.53,040811,,,A*78
$GPVTG,111.53,T,,M,0.11,N,0.2,K,A*08
$GPGGA,115810.952,3958.2929,N,08310.0954,W,1,04,1.5,282.9,M,-33.2,M,,0000*67
$GPGLL,3958.2929,N,08310.0954,W,115810.952,A,A*4C
$GPGSA,A,3,12,22,14,32,,,,,,,,,3.4,1.5,3.0*35
$GPGSV,3,1,10,31,80,261,27,14,59,058,30,22,40,154,33,30,35,064,*74
$GPGSV,3,2,10,27,34,239,,32,33,311,29,12,20,044,32,11,11,274,*7B
$GPGSV,3,3,10,20,07,317,26,18,05,144,18*78
$GPRMC,115810.952,A,3958.2929,N,08310.0954,W,0.12,109.31,040811,,,A*7E
$GPVTG,109.31,T,,M,0.12,N,0.2,K,A*06
$GPGGA,115811.952,3958.2929,N,08310.0954,W,1,04,1.5,282.9,M,-33.2,M,,0000*66
$GPGLL,3958.2929,N,08310.0954,W,115811.952,A,A*4D
$GPGSA,A,3,12,22,14,32,,,,,,,,,3.4,1.5,3.0*35
$GPGSV,3,1,10,31,80,261,27,14,59,058,30,22,40,154,33,30,35,064,*74
$GPGSV,3,2,10,27,34,239,,32,33,311,29,12,20,044,32,11,11,274,*7B
$GPGSV,3,3,10,20,07,317,26,18,05,144,18*78
$GPRMC,115811.952,A,3958.2929,N,08310.0954,W,0.12,108.12,040811,,,A*7F
$GPVTG,108.12,T,,M,0.12,N,0.2,K,A*06
$GPGGA,115812.952,3958.2929,N,08310.0954,W,1,04,1.5,282.9,M,-33.2,M,,0000*65
$GPGLL,3958.2929,N,08310.0954,W,115812.952,A,A*4E
$GPGSA,A,3,12,22,14,32,,,,,,,,,3.4,1.5,3.0*35
$GPGSV,3,1,10,31,80,261,27,14,59,058,30,22,40,154,33,30,35,064,*74
$GPGSV,3,2,10,27,34,239,,32,33,311,29,12,20,044,32,11,11,274,*7B
$GPGSV,3,3,10,20,07,317,26,18,05,144,18*78
$GPRMC,115812.952,A,3958.2929,N,08310.0954,W,0.12,111.53,040811,,,A*71
$GPVTG,111.53,T,,M,0.12,N,0.2,K,A*0B
$GPGGA,115813.952,3958.2929,N,08310.0954,W,1,04,1.5,282.9,M,-33.2,M,,0000*64
$GPGLL,3958.2929,N,08310.0954,W,115813.952,A,A*4F
$GPGSA,A,3,12,22,14,32,,,,,,,,,3.4,1.5,3.0*35
$GPGSV,3,1,10,31,80,261,27,14,59,058,30,22,40,154,33,30,35,064,*74
$GPGSV,3,2,10,27,34,239,,32,33,311,29,12,20,044,32,11,11,274,*7B
$GPGSV,3,3,10,20,07,317,26,18,05,144,18*78
$GPRMC,115813.952,A,3958.2929,N,08310.0954,W,0.13,116.50,040811,,,A*75
$GPVTG,116.50,T,,M,0.13,N,0.2,K,A*0E
$GPGGA,115814.952,3958.2929,N,08310.0954,W,1,04,1.5,282.9,M,-33.2,M,,0000*63
$GPGLL,3958.2929,N,08310.0954,W,115814.952,A,A*48
$GPGSA,A,3,12,22,14,32,,,,,,,,,3.4,1.5,3.0*35
$GPGSV,3,1,10,31,80,261,27,14,59,058,30,22,40,154,33,30,35,064,*74
$GPGSV,3,2,10,27,34,239,,32,33,311,29,12,20,044,32,11,11,274,*7B
$GPGSV,3,3,10,20,07,317,26,18,05,144,18*78
$GPRMC,115814.952,A,3958.2929,N,08310.0954,W,0.11,114.53,040811,,,A*71
$GPVTG,114.53,T,,M,0.11,N,0.2,K,A*0D
$GPGGA,115815.952,3958.2929,N,08310.0953,W,1,04,1.5,282.9,M,-33.2,M,,0000*65
$GPGLL,3958.2929,N,08310.0953,W,115815.952,A,A*4E
$GPGSA,A,3,12,22,14,32,,,,,,,,,3.4,1.5,3.0*35
$GPGSV,3,1,10,31,80,261,27,14,59,058,30,22,40,154,33,30,35,064,*74
$GPGSV,3,2,10,27,34,239,,32,33,311,29,12,20,044,32,11,11,274,*7B
$GPGSV,3,3,10,20,07,317,26,18,05,144,19*79
$GPRMC,115815.952,A,3958.2929,N,08310.0953,W,0.16,112.55,040811,,,A*70
$GPVTG,112.55,T,,M,0.16,N,0.3,K,A*0B
$GPGGA,115816.952,3958.2928,N,08310.0953,W,1,04,1.5,282.9,M,-33.2,M,,0000*67
$GPGLL,3958.2928,N,08310.0953,W,115816.952,A,A*4C
$GPGSA,A,3,12,22,14,32,,,,,,,,,3.4,1.5,3.0*35
$GPGSV,3,1,10,31,80,261,27,14,59,058,30,22,40,154,33,30,35,064,*74
$GPGSV,3,2,10,27,34,239,,32,33,311,29,12,20,044,32,11,11,274,*7B
$GPGSV,3,3,10,20,07,317,26,18,05,144,19*79
$GPRMC,115816.952,A,3958.2928,N,08310.0953,W,0.10,108.77,040811,,,A*7F
$GPVTG,108.77,T,,M,0.10,N,0.2,K,A*07
$GPGGA,115817.952,3958.2928,N,08310.0953,W,1,04,1.5,283.0,M,-33.2,M,,0000*6E
$GPGLL,3958.2928,N,08310.0953,W,115817.952,A,A*4D
$GPGSA,A,3,12,22,14,32,,,,,,,,,3.4,1.5,3.0*35
$GPGSV,3,1,10,31,80,261,27,14,59,058,30,22,40,154,33,30,35,064,*74
$GPGSV,3,2,10,27,34,239,,32,33,311,29,12,20,044,32,11,11,274,*7B
$GPGSV,3,3,10,20,07,317,26,18,05,144,20*73
$GPRMC,115817.952,A,3958.2928,N,08310.0953,W,0.11,111.35,040811,,,A*71
$GPVTG,111.35,T,,M,0.11,N,0.2,K,A*08
$GPGGA,115818.952,3958.2928,N,08310.0953,W,1,04,1.5,283.0,M,-33.2,M,,0000*61
$GPGLL,3958.2928,N,08310.0953,W,115818.952,A,A*42
$GPGSA,A,3,12,22,14,32,,,,,,,,,3.4,1.5,3.0*35
$GPGSV,3,1,10,31,80,261,27,14,59,058,30,22,40,154,33,30,35,064,*74
$GPGSV,3,2,10,27,34,239,,32,33,311,29,12,20,044,31,11,11,274,*78
$GPGSV,3,3,10,20,07,317,26,18,05,144,20*73
$GPRMC,115818.952,A,3958.2928,N,08310.0953,W,0.12,113.20,040811,,,A*7B
$GPVTG,113.20,T,,M,0.12,N,0.2,K,A*0D
$GPGGA,115819.952,3958.2928,N,08310.0953,W,1,04,1.5,283.0,M,-33.2,M,,0000*60
$GPGLL,3958.2928,N,08310.0953,W,115819.952,A,A*43
$GPGSA,A,3,12,22,14,32,,,,,,,,,3.4,1.5,3.0*35
$GPGSV,3,1,10,31,80,261,27,14,59,058,30,22,40,154,33,30,35,064,*74
$GPGSV,3,2,10,27,34,239,,32,33,311,29,12,20,044,31,11,11,274,*78
$GPGSV,3,3,10,20,07,317,26,18,05,144,20*73
$GPRMC,115819.952,A,3958.2928,N,08310.0953,W,0.13,102.62,040811,,,A*7D
$GPVTG,102.62,T,,M,0.13,N,0.2,K,A*0A
$GPGGA,115820.952,3958.2928,N,08310.0953,W,1,04,1.5,283.1,M,-33.2,M,,0000*6B
$GPGLL,3958.2928,N,08310.0953,W,115820.952,A,A*49
$GPGSA,A,3,12,22,14,32,,,,,,,,,3.4,1.5,3.0*35
$GPGSV,3,1,10,31,80,261,27,14,59,058,30,22,40,154,33,30,35,064,*74
$GPGSV,3,2,10,27,34,239,,32,33,311,29,12,20,044,31,11,11,274,*78
$GPGSV,3,3,10,20,07,317,26,18,05,144,21*72
$GPRMC,115820.952,A,3958.2928,N,08310.0953,W,0.11,109.36,040811,,,A*7F
$GPVTG,109.36,T,,M,0.11,N,0.2,K,A*02
$GPGGA,115821.952,3958.2928,N,08310.0953,W,1,04,1.5,283.1,M,-33.2,M,,0000*6A
$GPGLL,3958.2928,N,08310.0953,W,115821.952,A,A*48
$GPGSA,A,3,12,22,14,32,,,,,,,,,3.4,1.5,3.0*35
$GPGSV,3,1,10,31,80,261,27,14,59,058,30,22,40,154,32,30,35,064,*75
$GPGSV,3,2,10,27,34,239,,32,33,311,29,12,20,044,32,11,11,274,*7B
$GPGSV,3,3,10,20,07,317,26,18,05,144,21*72
$GPRMC,115821.952,A,3958.2928,N,08310.0953,W,0.14,114.93,040811,,,A*78
$GPVTG,114.93,T,,M,0.14,N,0.3,K,A*05
$GPGGA,115822.952,3958.2928,N,08310.0952,W,1,04,1.5,283.2,M,-33.2,M,,0000*6B
$GPGLL,3958.2928,N,08310.0952,W,115822.952,A,A*4A
$GPGSA,A,3,12,22,14,32,,,,,,,,,3.4,1.5,3.0*35
$GPGSV,3,1,10,31,80,261,27,14,59,058,30,22,40,154,33,30,35,064,*74
$GPGSV,3,2,10,27,34,239,,32,33,311,29,12,20,044,32,11,11,274,*7B
$GPGSV,3,3,10,20,07,317,26,18,05,144,21*72
$GPRMC,115822.952,A,3958.2928,N,08310.0952,W,0.09,112.74,040811,,,A*79
$GPVTG,112.74,T,,M,0.09,N,0.2,K,A*07
$GPGGA,115823.952,3958.2928,N,08310.0952,W,1,04,1.5,283.2,M,-33.2,M,,0000*6A
$GPGLL,3958.2928,N,08310.0952,W,115823.952,A,A*4B
$GPGSA,A,3,12,22,14,32,,,,,,,,,3.4,1.5,3.0*35
$GPGSV,3,1,10,31,80,261,27,14,59,058,30,22,40,154,33,30,35,064,*74
$GPGSV,3,2,10,27,34,239,,32,33,311,29,12,20,044,32,11,11,274,*7B
$GPGSV,3,3,10,20,07,317,26,18,05,144,20*73
$GPRMC,115823.952,A,3958.2928,N,08310.0952,W,0.12,110.44,040811,,,A*73
$GPVTG,110.44,T,,M,0.12,N,0.2,K,A*0C
$GPGGA,115824.952,3958.2928,N,08310.0952,W,1,04,1.5,283.3,M,-33.2,M,,0000*6C
$GPGLL,3958.2928,N,08310.0952,W,115824.952,A,A*4C
$GPGSA,A,3,12,22,14,32,,,,,,,,,3.4,1.5,3.0*35
$GPGSV,3,1,10,31,80,261,27,14,59,058,30,22,40,154,33,30,35,064,*74
$GPGSV,3,2,10,27,34,239,,32,33,311,29,12,20,044,32,11,11,274,*7B
$GPGSV,3,3,10,20,07,317,26,18,05,144,20*73
$GPRMC,115824.952,A,3958.2928,N,08310.0952,W,0.11,114.13,040811,,,A*71
$GPVTG,114.13,T,,M,0.11,N,0.2,K,A*09
$GPGGA,115825.952,3958.2928,N,08310.0952,W,1,04,1.5,283.4,M,-33.2,M,,0000*6A
$GPGLL,3958.2928,N,08310.0952,W,115825.952,A,A*4D
$GPGSA,A,3,12,22,14,32,,,,,,,,,3.4,1.5,3.0*35
$GPGSV,3,1,10,31,80,261,27,14,59,058,30,22,40,154,33,30,35,064,*74
$GPGSV,3,2,10,27,34,239,,32,33,311,29,12,20,044,32,11,11,274,*7B
$GPGSV,3,3,10,20,07,317,26,18,05,144,20*73
$GPRMC,115825.952,A,3958.2928,N,08310.0952,W,0.14,102.04,040811,,,A*74
$GPVTG,102.04,T,,M,0.14,N,0.3,K,A*0C
$GPGGA,115826.952,3958.2928,N,08310.0952,W,1,04,1.5,283.4,M,-33.2,M,,0000*69
$GPGLL,3958.2928,N,08310.0952,W,115826.952,A,A*4E
$GPGSA,A,3,12,22,14,32,,,,,,,,,3.4,1.5,3.0*35
$GPGSV,3,1,10,31,80,261,27,14,59,058,30,22,40,154,33,30,35,064,*74
$GPGSV,3,2,10,27,34,239,,32,33,311,29,12,20,044,32,11,11,274,*7B
$GPGSV,3,3,10,20,07,317,26,18,05,144,20*73
$GPRMC,115826.952,A,3958.2928,N,08310.0952,W,0.11,113.90,040811,,,A*7F
$GPVTG,113.90,T,,M,0.11,N,0.2,K,A*05
$GPGGA,115827.952,3958.2928,N,08310.0952,W,1,04,1.5,283.5,M,-33.2,M,,0000*69
$GPGLL,3958.2928,N,08310.0952,W,115827.952,A,A*4F
$GPGSA,A,3,12,22,14,32,,,,,,,,,3.4,1.5,3.0*35
$GPGSV,3,1,10,31,80,261,27,14,59,058,30,22,40,154,33,30,35,064,*74
$GPGSV,3,2,10,27,34,239,,32,33,311,29,12,20,044,32,11,11,274,*7B
$GPGSV,3,3,10,20,07,317,26,18,05,144,19*79
$GPRMC,115827.952,A,3958.2928,N,08310.0952,W,0.10,118.19,040811,,,A*75
$GPVTG,118.19,T,,M,0.10,N,0.2,K,A*0E
$GPGGA,115828.952,3958.2928,N,08310.0952,W,1,04,1.5,283.5,M,-33.2,M,,0000*66
$GPGLL,3958.2928,N,08310.0952,W,115828.952,A,A*40
$GPGSA,A,3,12,22,14,32,,,,,,,,,3.4,1.5,3.0*35
$GPGSV,3,1,10,31,80,261,27,14,59,058,30,22,40,154,33,30,35,064,*74
$GPGSV,3,2,10,27,34,239,,32,33,311,28,12,20,044,32,11,11,274,*7A
$GPGSV,3,3,10,20,07,317,26,18,05,144,19*79
$GPRMC,115828.952,A,3958.2928,N,08310.0952,W,0.11,99.94,040811,,,A*46
$GPVTG,99.94,T,,M,0.11,N,0.2,K,A*32
$GPGGA,115829.952,3958.2928,N,08310.0952,W,1,04,1.5,283.6,M,-33.2,M,,0000*64
$GPGLL,3958.2928,N,08310.0952,W,115829.952,A,A*41
$GPGSA,A,3,12,22,14,32,,,,,,,,,3.4,1.5,3.0*35
$GPGSV,3,1,10,31,80,261,27,14,59,058,30,22,40,154,33,30,35,064,*74
$GPGSV,3,2,10,27,34,239,,32,33,311,28,12,20,044,32,11,11,274,*7A
$GPGSV,3,3,10,20,07,317,26,18,05,144,19*79
$GPRMC,115829.952,A,3958.2928,N,08310.0952,W,0.11,114.30,040811,,,A*7D
$GPVTG,114.30,T,,M,0.11,N,0.2,K,A*08
$GPGGA,115830.952,3958.2928,N,08310.0952,W,1,04,1.5,283.6,M,-33.2,M,,0000*6C
$GPGLL,3958.2928,N,08310.0952,W,115830.952,A,A*49
$GPGSA,A,3,12,22,14,32,,,,,,,,,3.4,1.5,3.0*35
$GPGSV,3,1,10,31,80,261,27,14,59,058,31,22,40,154,33,30,35,064,*75
$GPGSV,3,2,10,27,34,239,,32,33,311,28,12,20,044,32,11,11,274,*7A
$GPGSV,3,3,10,20,07,317,26,18,05,144,19*79
$GPRMC,115830.952,A,3958.2928,N,08310.0952,W,0.09,103.39,040811,,,A*73
$GPVTG,103.39,T,,M,0.09,N,0.2,K,A*0E
$GPGGA,115831.952,3958.2928,N,08310.0952,W,1,04,1.5,283.7,M,-33.2,M,,0000*6C
$GPGLL,3958.2928,N,08310.0952,W,115831.952,A,A*48
$GPGSA,A,3,12,22,14,32,,,,,,,,,3.4,1.5,3.0*35
$GPGSV,3,1,10,31,80,261,27,14,59,058,31,22,40,154,33,30,35,064,*75
$GPGSV,3,2,10,27,34,239,,32,33,311,28,12,20,044,32,11,11,274,*7A
$GPGSV,3,3,10,20,07,317,26,18,05,144,20*73
$GPRMC,115831.952,A,3958.2928,N,08310.0952,W,0.13,104.30,040811,,,A*77
$GPVTG,104.30,T,,M,0.13,N,0.2,K,A*0B
$GPGGA,115832.952,3958.2928,N,08310.0952,W,1,04,1.5,283.7,M,-33.2,M,,0000*6F
$GPGLL,3958.2928,N,08310.0952,W,115832.952,A,A*4B
$GPGSA,A,3,12,22,14,32,,,,,,,,,3.4,1.5,3.0*35
$GPGSV,3,1,10,31,80,261,27,14,59,058,31,22,40,154,33,30,35,064,*75
$GPGSV,3,2,10,27,34,239,,32,33,311,28,12,20,044,32,11,11,274,*7A
$GPGSV,3,3,10,20,07,317,26,18,05,144,28*7B
$GPRMC,115832.952,A,3958.2928,N,08310.0952,W,0.11,108.23,040811,,,A*78
$GPVTG,108.23,T,,M,0.11,N,0.2,K,A*07
$GPGGA,115833.952,3958.2928,N,08310.0952,W,1,04,1.5,283.8,M,-33.2,M,,0000*61
$GPGLL,3958.2928,N,08310.0952,W,115833.952,A,A*4A
$GPGSA,A,3,12,22,14,32,,,,,,,,,3.4,1.5,3.0*35
$GPGSV,3,1,10,31,80,261,27,14,59,058,31,22,40,154,33,30,35,064,*75
$GPGSV,3,2,10,27,34,239,,32,33,311,28,12,20,044,32,11,11,274,*7A
